{"objectIdFieldName":"OBJECTID","uniqueIdField":{"name":"OBJECTID","isSystemMaintained":true},"globalIdFieldName":"","geometryType":"esriGeometryPoint","spatialReference":{"wkid":102100,"latestWkid":3857},"fields":[{"name":"OBJECTID","type":"esriFieldTypeOID","alias":"OBJECTID","sqlType":"sqlTypeOther","domain":null,"defaultValue":null},{"name":"案件編號","type":"esriFieldTypeInteger","alias":"案件編號","sqlType":"sqlTypeOther","domain":null,"defaultValue":null},{"name":"縣市","type":"esriFieldTypeString","alias":"縣市","sqlType":"sqlTypeOther","length":254,"domain":null,"defaultValue":null},{"name":"行政區","type":"esriFieldTypeString","alias":"行政區","sqlType":"sqlTypeOther","length":254,"domain":null,"defaultValue":null},{"name":"地址","type":"esriFieldTypeString","alias":"地址","sqlType":"sqlTypeOther","length":254,"domain":null,"defaultValue":null},{"name":"地號","type":"esriFieldTypeString","alias":"地號","sqlType":"sqlTypeOther","length":254,"domain":null,"defaultValue":null},{"name":"場址名稱","type":"esriFieldTypeString","alias":"場址名稱","sqlType":"sqlTypeOther","length":254,"domain":null,"defaultValue":null},{"name":"Lon","type":"esriFieldTypeDouble","alias":"Lon","sqlType":"sqlTypeOther","domain":null,"defaultValue":null},{"name":"Lat","type":"esriFieldTypeDouble","alias":"Lat","sqlType":"sqlTypeOther","domain":null,"defaultValue":null},{"name":"廢棄物種類","type":"esriFieldTypeString","alias":"廢棄物種類","sqlType":"sqlTypeOther","length":254,"domain":null,"defaultValue":null},{"name":"最後更新日","type":"esriFieldTypeString","alias":"最後更新日","sqlType":"sqlTypeOther","length":254,"domain":null,"defaultValue":null},{"name":"土水列管場","type":"esriFieldTypeString","alias":"土水列管場","sqlType":"sqlTypeOther","length":254,"domain":null,"defaultValue":null},{"name":"現場狀態","type":"esriFieldTypeString","alias":"現場狀態","sqlType":"sqlTypeOther","length":254,"domain":null,"defaultValue":null}],"features":[{"attributes":{"OBJECTID":76,"案件編號":383,"縣市":"南投縣","行政區":"南投市","地址":" ","地號":"內興段791、792、792-2，793-2，794地號","場址名稱":"韋國企業社","Lon":120.691075,"Lat":23.924506,"廢棄物種類":"一般","最後更新日":"2022/4/22","土水列管場":"否","現場狀態":"現場查獲砂石車及挖土地各一台，於現場進行整地作業，於111年5月23日移送本縣警察局中興分局偵查隊偵辦"},"geometry":{"x":13435269.0123163,"y":2744211.5314114257}},{"attributes":{"OBJECTID":86,"案件編號":404,"縣市":"南投縣","行政區":"竹山鎮","地址":" ","地號":"山坪頂段132-1、149-52、149-53、149-54等地號","場址名稱":"韋國企業社竹山","Lon":120.664615,"Lat":23.670658,"廢棄物種類":"一般","最後更新日":"2022/5/27","土水列管場":"否","現場狀態":"例行性巡查，場址雜草叢生，未查獲新增廢棄物情事"},"geometry":{"x":13432323.498608926,"y":2713327.3982367264}},{"attributes":{"OBJECTID":102,"案件編號":460,"縣市":"南投縣","行政區":"南投市","地址":" ","地號":"南投市東施厝坪段201-11、201-60、201-61、201-73、201-81、209-1、9047-2、9047-8","場址名稱":"永興棄土場","Lon":120.640448,"Lat":23.89014,"廢棄物種類":"一般","最後更新日":"2022/5/4","土水列管場":"否","現場狀態":"例行性巡查，場址雜草叢生，未查獲新增廢棄物情事"},"geometry":{"x":13429633.2404519,"y":2740026.89286858}},{"attributes":{"OBJECTID":122,"案件編號":554,"縣市":"南投縣","行政區":"中寮鄉","地址":"永平路510-12號隔壁","地號":"南投縣中寮鄉二重溪段381地號","場址名稱":"中寮鄉二重溪段381地號","Lon":120.714944,"Lat":23.894722,"廢棄物種類":"混合","最後更新日":"2022/5/16","土水列管場":"否","現場狀態":"例行性巡查，場址雜草叢生，未查獲新增廢棄物情事"},"geometry":{"x":13437926.097236969,"y":2740584.76417587}},{"attributes":{"OBJECTID":156,"案件編號":826,"縣市":"南投縣","行政區":"名間鄉","地址":"新民段1、2、3、4地號土地","地號":"南投縣名間鄉新民段1、2、3、4地號土地","場址名稱":"南投縣名間鄉新民段1、2、3、4地號土地","Lon":120.719222,"Lat":23.928297,"廢棄物種類":"一般","最後更新日":"2022/5/10","土水列管場":"否","現場狀態":"例行性巡查，未查獲新增廢棄物情事"},"geometry":{"x":13438402.321955141,"y":2744673.2176443445}},{"attributes":{"OBJECTID":157,"案件編號":827,"縣市":"南投縣","行政區":"竹山鎮","地址":"香員腳段117-8地號、130地號土地","地號":"南投縣竹山鎮香員腳段117-8地號、130地號土地","場址名稱":"南投縣竹山鎮香員腳段117-8地號、130地號土地","Lon":120.718302,"Lat":23.92873,"廢棄物種類":"一般","最後更新日":"2022/6/2","土水列管場":"否","現場狀態":"例行性巡查，因出入口道路積水嚴重，無法進入棄置場址"},"geometry":{"x":13438299.908106143,"y":2744725.9513489767}},{"attributes":{"OBJECTID":158,"案件編號":828,"縣市":"南投縣","行政區":"名間鄉","地址":"名水段576、577及584地號土地","地號":"南投縣名間鄉名水段575、577地號土地","場址名稱":"南投縣名間鄉名水段576、577及584地號土地","Lon":120.700588,"Lat":23.834474,"廢棄物種類":"一般","最後更新日":"2022/5/10","土水列管場":"否","現場狀態":"例行性巡查，未查獲新增廢棄物情事"},"geometry":{"x":13436327.994612735,"y":2733250.9784935042}},{"attributes":{"OBJECTID":159,"案件編號":829,"縣市":"南投縣","行政區":"竹山鎮","地址":"中崎段58地號","地號":"南投縣竹山鎮中崎段58地號","場址名稱":"南投縣竹山鎮中崎段58地號","Lon":120.672672,"Lat":23.754048,"廢棄物種類":"一般","最後更新日":"2022/5/16","土水列管場":"否","現場狀態":"例行性巡查，場址雜草叢生，未查獲新增廢棄物情事"},"geometry":{"x":13433220.399660656,"y":2723466.29918132}},{"attributes":{"OBJECTID":160,"案件編號":830,"縣市":"南投縣","行政區":"中寮鄉","地址":"永樂路71號（仙鹿段34地號及54地號土地）","地號":"南投縣中寮鄉永樂路71號（仙鹿段34地號及54地號土地）","場址名稱":"南投縣中寮鄉永樂路71號（仙鹿段34地號及54地號土地）","Lon":120.790145,"Lat":23.881571,"廢棄物種類":"一般","最後更新日":"2022/5/26","土水列管場":"否","現場狀態":"經現場稽查結果，現場廢棄物已清理完畢。"},"geometry":{"x":13446297.434278134,"y":2738983.6461432041}},{"attributes":{"OBJECTID":161,"案件編號":831,"縣市":"南投縣","行政區":"南投市","地址":"東山里軍功寮段34-20地號","地號":"南投市東山里軍功寮段34-20地號","場址名稱":"南投市東山里軍功寮段34-20地號","Lon":120.718263,"Lat":23.928624,"廢棄物種類":"一般","最後更新日":"2022/5/27","土水列管場":"否","現場狀態":"例行性巡查，未查獲新增廢棄物情事"},"geometry":{"x":13438295.566646025,"y":2744713.0418846346}},{"attributes":{"OBJECTID":235,"案件編號":939,"縣市":"南投縣","行政區":"竹山鎮","地址":"前山鹿2段384號","地號":"南投縣竹山鎮中和段1444地號","場址名稱":"南投縣竹山鎮前山路2段384號","Lon":120.654615,"Lat":23.771103,"廢棄物種類":"一般","最後更新日":"2022/5/16","土水列管場":"否","現場狀態":"例行性巡查，未查獲新增廢棄物情事"},"geometry":{"x":13431210.303623125,"y":2725540.7158575468}},{"attributes":{"OBJECTID":243,"案件編號":969,"縣市":"南投縣","行政區":"南投市","地址":"福溪段885、888地號","地號":"南投縣南投市福溪段884地號 南投縣南投市福溪段888地號","場址名稱":"南投縣南投市福溪段885、888地號","Lon":120.697443,"Lat":23.917071,"廢棄物種類":"一般","最後更新日":"2022/5/4","土水列管場":"否","現場狀態":"例行性巡查，未查獲新增廢棄物情事"},"geometry":{"x":13435977.894787308,"y":2743306.1008308078}},{"attributes":{"OBJECTID":280,"案件編號":1041,"縣市":"南投縣","行政區":"埔里鎮","地址":"埔里鎮九成街49號","地號":"埔里鎮慈恩段398、399地號","場址名稱":"埔里鎮九成街49號廠房","Lon":120.98205,"Lat":23.952015,"廢棄物種類":"混合","最後更新日":"2022/4/25","土水列管場":"否","現場狀態":"例行性巡查，未查獲新增廢棄物情事"},"geometry":{"x":13467660.201104958,"y":2747562.01744015}},{"attributes":{"OBJECTID":281,"案件編號":1060,"縣市":"南投縣","行政區":"草屯鎮","地址":"日新段1112地號","地號":"南投縣草屯鎮日新段1112地號","場址名稱":"草屯鎮日新段1112地號","Lon":120.682087,"Lat":23.990394,"廢棄物種類":"一般","最後更新日":"2022/4/25","土水列管場":"否","現場狀態":"例行性巡查，未查獲新增廢棄物情事"},"geometry":{"x":13434268.472744586,"y":2752237.6201509358}},{"attributes":{"OBJECTID":282,"案件編號":1119,"縣市":"南投縣","行政區":"南投市","地址":"福興段403、405地號","地號":"南投縣南投市福興段403地號 南投縣南投市福興段405地號","場址名稱":"南投縣南投市福興段403、405地號","Lon":120.658644,"Lat":23.946724,"廢棄物種類":"一般","最後更新日":"2022/5/4","土水列管場":"否","現場狀態":"例行性巡查，未查獲新增廢棄物情事"},"geometry":{"x":13431658.809911422,"y":2746917.5393318105}},{"attributes":{"OBJECTID":283,"案件編號":1120,"縣市":"南投縣","行政區":"竹山鎮","地址":"鹿山路284巷61號","地號":"南投縣竹山鎮鹿山段116地號 南投縣竹山鎮鹿山段117地號","場址名稱":"南投縣竹山鎮鹿山段116、117地號","Lon":120.658654,"Lat":23.946419,"廢棄物種類":"一般","最後更新日":"2022/5/16","土水列管場":"否","現場狀態":"例行性巡查，未查獲新增廢棄物情事"},"geometry":{"x":13431659.923057554,"y":2746880.3892013249}},{"attributes":{"OBJECTID":323,"案件編號":1230,"縣市":"南投縣","行政區":"埔里鎮","地址":"溪南段455-456地號土地","地號":"南投縣埔里鎮溪南段455-456地號土地","場址名稱":"南投縣埔里鎮溪南段455-456地號土地","Lon":120.952736,"Lat":23.946596,"廢棄物種類":"一般","最後更新日":"2022/6/2","土水列管場":"否","現場狀態":"例行性巡查，未查獲新增廢棄物情事"},"geometry":{"x":13464396.98153615,"y":2746901.9484779309}},{"attributes":{"OBJECTID":324,"案件編號":1231,"縣市":"南投縣","行政區":"名間鄉","地址":"萬丹段202地號土地","地號":"南投縣名間鄉萬丹段202地號土地","場址名稱":"南投縣名間鄉萬丹段202地號土地","Lon":120.701739,"Lat":23.886162,"廢棄物種類":"一般","最後更新日":"2022/6/2","土水列管場":"否","現場狀態":"例行性巡查，未查獲新增廢棄物情事"},"geometry":{"x":13436456.123348719,"y":2739542.5762721924}},{"attributes":{"OBJECTID":325,"案件編號":1238,"縣市":"南投縣","行政區":"中寮鄉","地址":"中寮段708-3地號","地號":"南投縣中寮鄉中寮段708-3地號 南投縣國姓鄉墘溝段9015-1地號","場址名稱":"中寮鄉中寮段708-3地號、國姓鄉墘坑段9015-1地號、","Lon":120.767912,"Lat":23.909499,"廢棄物種類":"一般","最後更新日":"2022/5/26","土水列管場":"否","現場狀態":"例行性巡查，未查獲新增廢棄物情事"},"geometry":{"x":13443822.468033439,"y":2742384.0399001557}},{"attributes":{"OBJECTID":339,"案件編號":1258,"縣市":"南投縣","行政區":"南投市","地址":"南鄉段570地號","地號":"南投縣南投市南鄉段570地號","場址名稱":"南投市千秋里活動中心旁","Lon":120.704404,"Lat":23.893964,"廢棄物種類":"一般","最後更新日":"2022/5/16","土水列管場":"否","現場狀態":"例行性巡查，未查獲新增廢棄物情事"},"geometry":{"x":13436752.78975717,"y":2740492.4742064332}},{"attributes":{"OBJECTID":347,"案件編號":1266,"縣市":"南投縣","行政區":"竹山鎮","地址":"大坪段420、451地號","地號":"南投縣竹山鎮大坪段420地號 南投縣竹山鎮大坪段451地號","場址名稱":"南投縣竹山鎮鯉南路384號前","Lon":120.656374,"Lat":23.632688,"廢棄物種類":"一般","最後更新日":"2022/6/2","土水列管場":"否","現場狀態":"例行性巡查，未查獲新增廢棄物情事"},"geometry":{"x":13431406.114627222,"y":2708712.9930061032}},{"attributes":{"OBJECTID":372,"案件編號":1301,"縣市":"南投縣","行政區":"名間鄉","地址":"南雲路12號農地","地號":"南投縣名間鄉名水段747地號","場址名稱":"南投縣名間鄉名水段747地號","Lon":120.704875,"Lat":23.829056,"廢棄物種類":"一般","最後更新日":"2022/5/10","土水列管場":"否","現場狀態":"例行性巡查，未查獲新增廢棄物情事"},"geometry":{"x":13436805.221252538,"y":2732591.6307522384}},{"attributes":{"OBJECTID":419,"案件編號":1370,"縣市":"南投縣","行政區":"南投市","地址":"中興路401-3號","地號":"南投縣南投市福德段809地號","場址名稱":"南投市福德段809地號","Lon":120.698103,"Lat":23.916786,"廢棄物種類":"一般","最後更新日":"2022/5/16","土水列管場":"否","現場狀態":"無新增廢棄物情形"},"geometry":{"x":13436051.365635544,"y":2743271.3946400597}},{"attributes":{"OBJECTID":424,"案件編號":1382,"縣市":"南投縣","行政區":"竹山鎮","地址":"竹山交流道旁堤防外河川地","地號":" ","場址名稱":"南投縣竹山鎮竹山交流道旁堤防外河川地","Lon":120.696948,"Lat":23.799605,"廢棄物種類":"一般","最後更新日":"2022/5/19","土水列管場":"否","現場狀態":" "},"geometry":{"x":13435922.791701175,"y":2729008.0496292058}},{"attributes":{"OBJECTID":461,"案件編號":1435,"縣市":"南投縣","行政區":"南投市","地址":"光復段911-7地號","地號":"南投縣南投市光復段911-7地號","場址名稱":"南投縣南投市光復段911-7地號","Lon":120.686302,"Lat":23.9373,"廢棄物種類":"一般","最後更新日":" ","土水列管場":" ","現場狀態":" "},"geometry":{"x":13434737.684411891,"y":2745769.70051672}}]}