{"objectIdFieldName":"OBJECTID","uniqueIdField":{"name":"OBJECTID","isSystemMaintained":true},"globalIdFieldName":"","geometryType":"esriGeometryPoint","spatialReference":{"wkid":102100,"latestWkid":3857},"fields":[{"name":"OBJECTID","type":"esriFieldTypeOID","alias":"OBJECTID","sqlType":"sqlTypeOther","domain":null,"defaultValue":null},{"name":"案件編號","type":"esriFieldTypeInteger","alias":"案件編號","sqlType":"sqlTypeOther","domain":null,"defaultValue":null},{"name":"縣市","type":"esriFieldTypeString","alias":"縣市","sqlType":"sqlTypeOther","length":254,"domain":null,"defaultValue":null},{"name":"行政區","type":"esriFieldTypeString","alias":"行政區","sqlType":"sqlTypeOther","length":254,"domain":null,"defaultValue":null},{"name":"地址","type":"esriFieldTypeString","alias":"地址","sqlType":"sqlTypeOther","length":254,"domain":null,"defaultValue":null},{"name":"地號","type":"esriFieldTypeString","alias":"地號","sqlType":"sqlTypeOther","length":254,"domain":null,"defaultValue":null},{"name":"場址名稱","type":"esriFieldTypeString","alias":"場址名稱","sqlType":"sqlTypeOther","length":254,"domain":null,"defaultValue":null},{"name":"Lon","type":"esriFieldTypeDouble","alias":"Lon","sqlType":"sqlTypeOther","domain":null,"defaultValue":null},{"name":"Lat","type":"esriFieldTypeDouble","alias":"Lat","sqlType":"sqlTypeOther","domain":null,"defaultValue":null},{"name":"廢棄物種類","type":"esriFieldTypeString","alias":"廢棄物種類","sqlType":"sqlTypeOther","length":254,"domain":null,"defaultValue":null},{"name":"最後更新日","type":"esriFieldTypeString","alias":"最後更新日","sqlType":"sqlTypeOther","length":254,"domain":null,"defaultValue":null},{"name":"土水列管場","type":"esriFieldTypeString","alias":"土水列管場","sqlType":"sqlTypeOther","length":254,"domain":null,"defaultValue":null},{"name":"現場狀態","type":"esriFieldTypeString","alias":"現場狀態","sqlType":"sqlTypeOther","length":254,"domain":null,"defaultValue":null}],"features":[{"attributes":{"OBJECTID":2,"案件編號":20,"縣市":"臺南市","行政區":"安南區","地址":" ","地號":"臺南市安南區神榕段328、349地號","場址名稱":"臺南市安南區神榕段328、349地號","Lon":120.177711,"Lat":23.073129,"廢棄物種類":"一般","最後更新日":"2022/5/6","土水列管場":"否","現場狀態":"一、本次執行非法棄置場址巡查工作。 二、場址為一處魚塭旁，由空拍場址內部地表有整地鋪平痕跡，場址原設有地下水監測井簡易井(共計3處)目視已遭破壞，現場未發現新增棄置廢棄物情形。 三、本次巡查場址棄置廢棄物未發現移動或新增減少情形。 四、以下空白。"},"geometry":{"x":13378121.593228169,"y":2640864.7519970387}},{"attributes":{"OBJECTID":26,"案件編號":181,"縣市":"臺南市","行政區":"山上區","地址":" ","地號":"臺南市山上區豐德段613地號","場址名稱":"臺南市山上區豐德段613地號","Lon":120.359714,"Lat":23.08378,"廢棄物種類":"一般","最後更新日":"2022/5/17","土水列管場":"否","現場狀態":"一、本次執行非法棄置場址巡查工作。 二、場址位於一般道路旁且鄰近豐德發電廠，入口處大門上鎖，場址於110年4月27日新增之土方、路面刨除之瀝青及混凝土石塊，本次巡查空拍未發現堆置情形，場址內地表已生長雜草，場址內部及周邊未發現棄置廢棄物情形。 三、本次巡查場址棄"},"geometry":{"x":13398382.074481925,"y":2642153.5605956558}},{"attributes":{"OBJECTID":27,"案件編號":184,"縣市":"臺南市","行政區":"六甲區","地址":" ","地號":"中社段19號","場址名稱":"中社段19號","Lon":120.326776,"Lat":23.259904,"廢棄物種類":"一般","最後更新日":"2022/5/17","土水列管場":"否","現場狀態":"一、本次執行列管場址巡查工作。 二、場址旁為龜子港大排水溝，場址鄰近農田及雜草叢生荒地，目視場址內部已雜草叢生覆蓋廢棄物。 三、本次巡查場址與上次巡查照片比對無新增廢棄物。 四、以下空白。"},"geometry":{"x":13394715.433095435,"y":2663480.0369435633}},{"attributes":{"OBJECTID":28,"案件編號":186,"縣市":"臺南市","行政區":"後壁區","地址":"新東村148之20號（新港東段新港東小段1585、1584、1583、1582、1581地號）","地號":"臺南市後壁區新港東段新港東小段1585、1584、1583、1582、1581地號","場址名稱":"新東村148之20號","Lon":120.327334,"Lat":23.344427,"廢棄物種類":"一般","最後更新日":"2022/4/29","土水列管場":"是","現場狀態":"一、本次執行非法棄置場址巡查工作。 二、場址於107年9月5及9月6日進行廢棄物開挖調查採樣作業，共計24個點位，並在採樣後完成回填作業。 三、場址周圍為農田有種植情形，場址內部已雜草樹木叢生，人員不易進出。 四、本次巡查場址無新增廢棄物。 五、以下空白。"},"geometry":{"x":13394777.54943266,"y":2673724.7413250036}},{"attributes":{"OBJECTID":29,"案件編號":188,"縣市":"臺南市","行政區":"柳營區","地址":"東昇村700-31","地號":"溫厝廊318-0 318-3地號","場址名稱":"溫厝廊318地號","Lon":120.321875,"Lat":23.261702,"廢棄物種類":"一般","最後更新日":"2022/7/25","土水列管場":"否","現場狀態":"一、本次執行環保署列管場址巡查工作。 二、場址位於柳營區溫厝廊小段318地號，場址內部為地下掩埋營建廢棄物，現場圍籬阻擋人員無法進入，經空拍廢棄物及週遭表面已生長雜草，目視表面無廢棄物，場址現場及周圍未發現新增棄置廢棄物情形。 三、以下空白。"},"geometry":{"x":13394169.856339887,"y":2663697.8978466215}},{"attributes":{"OBJECTID":30,"案件編號":190,"縣市":"臺南市","行政區":"新化區","地址":"護國里","地號":"臺南市新化區王公廟小段12號","場址名稱":"臺南市新化區王公廟小段12號","Lon":120.33046,"Lat":23.049001,"廢棄物種類":"一般","最後更新日":"2022/5/3","土水列管場":"否","現場狀態":"一、本次執行非法棄置場址巡查工作。 二、場址位於深坑子溪旁，經空拍場址內部為雜草樹木叢生，場址內部設有監測地下水之簡易井(共計3處)，場址旁為鳳梨田及農田，前次巡查發現農用黑色塑膠膜堆置於場址入口處，本次巡查已清理完成，場址現場及周圍未發現新增棄置廢棄物情形"},"geometry":{"x":13395125.534090232,"y":2637945.556192101}},{"attributes":{"OBJECTID":31,"案件編號":192,"縣市":"臺南市","行政區":"歸仁區","地址":" ","地號":"臺南市歸仁區沙崙段331-2地號","場址名稱":"臺南市歸仁區沙崙段331-2地號","Lon":120.298281,"Lat":22.941367,"廢棄物種類":"混合","最後更新日":"2022/5/5","土水列管場":"是","現場狀態":"一、本次執行非法棄置場址巡查工作。 二、場址位於台86線快速公路旁，目視場址內部已雜草樹木叢生且雜草覆蓋地表及廢棄物，場址旁鄰近農地，現場及周圍道路未發現新增棄置廢棄物情形。 三、本次巡查場址棄置廢棄物未有移動或新增減少情形。 四、以下空白。"},"geometry":{"x":13391543.384189229,"y":2624929.5064626248}},{"attributes":{"OBJECTID":32,"案件編號":193,"縣市":"臺南市","行政區":"歸仁區","地址":" ","地號":"臺南市歸仁區沙崙段331地號","場址名稱":"臺南市歸仁區沙崙段331地號","Lon":120.297088,"Lat":22.941372,"廢棄物種類":"混合","最後更新日":"2022/5/5","土水列管場":"是","現場狀態":"一、本次執行非法棄置場址巡查工作。 二、場址大門深鎖故無法進入場址內，周圍架設鐵皮圍籬區隔，由空拍場址內部為種植果樹及蔬菜農作物，周圍為雜草叢生荒地，現場及周圍未發現新增棄置廢棄物情形。 三、本次巡查場址棄置廢棄物未有移動或新增減少情形。 四、以下空白。"},"geometry":{"x":13391410.580119373,"y":2624930.1107849875}},{"attributes":{"OBJECTID":33,"案件編號":199,"縣市":"臺南市","行政區":"仁德區","地址":" ","地號":"臺南市仁德區保甲段1199、1200及1201等地號","場址名稱":"臺南市仁德區保甲段1199、1200及1201等地號（工研院調查）","Lon":120.206588,"Lat":22.918258,"廢棄物種類":"混合","最後更新日":"2022/5/17","土水列管場":"否","現場狀態":"一、本次執行非法棄置場址巡查工作。 二、本次巡查場址內部有施工痕跡，場址前方有挖兩道渠道種植作物且周圍架設水泥圍牆，左側地表已做好水泥地基，原堆置於左側後方之鋁渣已集中於場址中央處堆放，右側有堆置大量淨土，場址內坑洞有開挖擴大之情形，鄰近於農田邊界土地已?"},"geometry":{"x":13381336.166138619,"y":2622136.314116546}},{"attributes":{"OBJECTID":34,"案件編號":200,"縣市":"臺南市","行政區":"柳營區","地址":"神農里","地號":"新厝段113-116地號","場址名稱":"新厝段113-116地號","Lon":120.348557,"Lat":23.262688,"廢棄物種類":"一般","最後更新日":"2022/7/25","土水列管場":"否","現場狀態":"一、本次執行環保署列管場址巡查工作。 二、場址位於柳營區新厝段113-116地號地號，場址內部原為地面堆置廢塑膠混合物，經空拍廢及週遭表面已生長雜草並覆蓋，目視表面無廢棄物且已清理完畢，場址現場及周圍未發現新增棄置廢棄物情形。 三、以下空白。"},"geometry":{"x":13397140.082912508,"y":2663817.3711427203}},{"attributes":{"OBJECTID":57,"案件編號":262,"縣市":"臺南市","行政區":"將軍區","地址":" ","地號":"口寮段160、161及162地號等多筆土地","場址名稱":"南26縣道魚塭非法棄置案","Lon":120.124812,"Lat":23.190115,"廢棄物種類":"一般","最後更新日":"2022/7/22","土水列管場":"否","現場狀態":"一、本次執行環保署列管場址巡查工作。 二、場址位於將軍區口寮段160、161及162等地號，場址內部為地下掩埋爐碴(石)、集塵灰廢棄物，現場圍籬阻擋人員無法進入，經空拍廢棄物及週遭魚塭，爐渣堆置於地表，場址現場有一施工機具。 三、以下空白。"},"geometry":{"x":13372232.903430311,"y":2655026.0794354263}},{"attributes":{"OBJECTID":58,"案件編號":266,"縣市":"臺南市","行政區":"仁德區","地址":" ","地號":"臺南市仁德區公園段270地號","場址名稱":"臺南市仁德區公園段270地號非法棄置案","Lon":120.223419,"Lat":22.929295,"廢棄物種類":"混合","最後更新日":"2022/5/18","土水列管場":"是","現場狀態":"一、本次執行非法棄置場址巡查工作。 二、場址內部因工廠拆除後表面僅剩土壤路面，因場址周圍施工中故無法進入拍攝，目視場址內暫放河川疏濬工程施工機具設備及鋼筋、石柱，工程為整治三爺宮溪，場址現場及周圍未發現新增棄置廢棄物情形。 三、本次巡查場址棄置廢棄物未有移"},"geometry":{"x":13383209.784493797,"y":2623470.3004405946}},{"attributes":{"OBJECTID":59,"案件編號":276,"縣市":"臺南市","行政區":"仁德區","地址":" ","地號":"臺南市仁德區車路墘段807地號","場址名稱":"臺南市仁德區車路墘段807地號（雲科大調查）","Lon":120.233804,"Lat":22.918494,"廢棄物種類":"一般","最後更新日":"2022/5/17","土水列管場":"否","現場狀態":"一、本次執行非法棄置場址巡查工作。 二、場址位於一般道路旁且鄰近豐德發電廠，入口處大門上鎖，場址於110年4月27日新增之土方、路面刨除之瀝青及混凝土石塊，本次巡查空拍未發現堆置情形，場址內地表已生長雜草，場址內部及周邊未發現棄置廢棄物情形。 三、本次巡查場址棄"},"geometry":{"x":13384365.837457716,"y":2622164.8370075347}},{"attributes":{"OBJECTID":77,"案件編號":391,"縣市":"臺南市","行政區":"將軍區","地址":" ","地號":"嘉昌段370地號","場址名稱":"臺南市將軍區嘉昌段370地號非法棄置案","Lon":120.151051,"Lat":23.217955,"廢棄物種類":"一般","最後更新日":"2022/5/9","土水列管場":"否","現場狀態":"一、本次執行非法棄置場址巡查工作。 二、場址後方為廢棄漁塭，場址內已有大量綠色植披覆蓋，目視場址內部之廢棄物已被淹沒，入口處至後方魚塭道路有鋪設級配情形。 三、以下空白。"},"geometry":{"x":13375153.815597055,"y":2658397.9748946889}},{"attributes":{"OBJECTID":83,"案件編號":401,"縣市":"臺南市","行政區":"西港區","地址":"1555、1555-1、1555-2地號","地號":"西港區八分段1555、1555-1、1555-2地號","場址名稱":"西港區八分段1555、1555-1、1555-2地號棄置場址","Lon":120.20601,"Lat":23.13965,"廢棄物種類":"一般","最後更新日":"2022/5/16","土水列管場":"否","現場狀態":"一、本次執行列管場址巡查工作。 二、場址外圍設有鐵皮圍籬且大門深鎖無法進入，目視場址內部已雜草叢生。 三、本次巡查場址與上次巡查照片比對無新增廢棄物。 四、以下空白。"},"geometry":{"x":13381271.823509119,"y":2648915.7018136149}},{"attributes":{"OBJECTID":101,"案件編號":454,"縣市":"臺南市","行政區":"仁德區","地址":"保安路一段90號","地號":"臺南市仁德區車頭段787、788、789、790、791、792等6筆地號","場址名稱":"臺南市仁德區車頭段787、788、789、790、791、792等6筆地號","Lon":120.228097,"Lat":22.928718,"廢棄物種類":"混合","最後更新日":"2022/5/16","土水列管場":"否","現場狀態":"一、本次執行非法棄置場址巡查工作。 二、場址中央處堆置之破碎木材(木板)、木材棧板及太空包(木屑)、破碎木材、廢砂輪盛裝之太空包等廢棄物已清理完畢，場址左側為園藝廠商租賃使用擺放園藝物品，目視場址內地表已生長雜草。本場址設有地下水監測井簡易井(共計3處)，場址現"},"geometry":{"x":13383730.537059451,"y":2623400.5586146931}},{"attributes":{"OBJECTID":103,"案件編號":473,"縣市":"臺南市","行政區":"永康區","地址":" ","地號":"臺南市永康區王行段112地號部分土地(原永康區車行段863~869地號)","場址名稱":"臺南市永康區王行段112地號(永康科技工業區(B區))","Lon":120.28212,"Lat":23.04376,"廢棄物種類":"一般","最後更新日":"2022/5/13","土水列管場":"否","現場狀態":"一、本次執行非法棄置場址巡查工作。 二、場址位於永康焚化爐後方，場址旁為一處停車場及一般道路，由空拍場址內部已架設儲能型太陽能發電設備，場址現場及周圍未發現新增棄置廢棄物情形。 三、本次巡查場址棄置廢棄物未有移動或新增減少情形。 四、以下空白。"},"geometry":{"x":13389744.349928539,"y":2637311.5278602871}},{"attributes":{"OBJECTID":113,"案件編號":515,"縣市":"臺南市","行政區":"鹽水區","地址":"1206-0000、1207-0000、1208-0000及1210-0000地號共4筆土地","地號":"鹽水區義中段1206-0000、1207-0000、1208-0000及1210-0000地號共4筆土地","場址名稱":"義中段1206-0000、1207-0000、1208-0000及1210-0000地號(原下中段503地號)","Lon":120.232124,"Lat":23.308192,"廢棄物種類":"一般","最後更新日":"2022/5/16","土水列管場":"否","現場狀態":"一、本次執行非法棄置場址巡查工作。 二、場址內部發現棄置大量廢棄物，廢棄物種類為一般垃圾、廢塑膠、廢塑膠混合物、裝潢修繕廢棄物、廢木材及數包太空包，且場址入口處已用鋼柱架設無法進出。 三、場址周圍鄰近農地及廢墟魚塭，目視周圍地表已雜草叢生。 四、本次巡查場?"},"geometry":{"x":13384178.820698494,"y":2669332.0405669487}},{"attributes":{"OBJECTID":167,"案件編號":840,"縣市":"臺南市","行政區":"六甲區","地址":"七甲段139、139-1、140、140-1地號","地號":"臺南市六甲區七甲段139、139-1、140、140-1地號","場址名稱":"臺南市六甲區七甲段139、139-1、140、140-1地號","Lon":120.342571,"Lat":23.220963,"廢棄物種類":"一般","最後更新日":"2022/7/25","土水列管場":"否","現場狀態":"一、本次執行環保署列管場址巡查工作。 二、場址位於六甲區七甲段139、139-1、140、140-1地號，場址內部為地面堆置玻璃纖維廢棄物，現場圍籬阻擋人員無法進入，經空拍廢棄物及週遭表面已生長雜草並覆蓋，目視廢棄物堆置無異動情形。 三、以下空白。"},"geometry":{"x":13396473.724445747,"y":2658762.3367100181}},{"attributes":{"OBJECTID":168,"案件編號":841,"縣市":"臺南市","行政區":"安南區","地址":"城西段453地號","地號":"臺南市安南區城西段453、711、712地號、城南段940、941、1155、1069-2、1069-3地號、學南段516地號","場址名稱":"臺南市安南區城西段453、711、712地號、城南段940、941、1155、1069-2、1069-3地號、學南段516地號","Lon":120.108999,"Lat":23.047887,"廢棄物種類":"混合","最後更新日":"2022/5/17","土水列管場":"否","現場狀態":"一、本次執行列管場址巡查工作。 二、該場址位於城西焚化爐附近，現場無人且大門深鎖，場址周圍設置全圍籬，場址旁為魚塭及一般道路。 三、本次巡查場址無新增廢棄物。 四、以下空白。"},"geometry":{"x":13370472.608336868,"y":2637810.7883071648}},{"attributes":{"OBJECTID":169,"案件編號":842,"縣市":"臺南市","行政區":"安南區","地址":"顯宮段0436地號","地號":"臺南市安南區顯宮段0436地號","場址名稱":"臺南市安南區顯宮段0436地號","Lon":120.131422,"Lat":23.047656,"廢棄物種類":"一般","最後更新日":"2022/7/21","土水列管場":"否","現場狀態":"一、本次執行非法棄置場址巡查工作。 二、本次巡查場址無施作廢棄物清理作業，現場無施工人員，篩分後之塑膠廢棄物堆置於場址入口處旁暫存，經比對前次巡查紀錄場址內部開挖坑痕跡已以土方填補，另場址完成清理期限展延至112年6月7日，場址大門深鎖無法進入。 三、本次巡查?"},"geometry":{"x":13372968.725359173,"y":2637782.8428815976}},{"attributes":{"OBJECTID":170,"案件編號":843,"縣市":"臺南市","行政區":"安定區","地址":"安定段2117號","地號":"臺南市安定區安定段2117號","場址名稱":"臺南市安定區安定段2117號","Lon":120.238723,"Lat":23.114705,"廢棄物種類":"一般","最後更新日":"2022/5/12","土水列管場":"否","現場狀態":"一、本次執行非法棄置場址巡查工作。 二、場址位於近安定交流道一般道路旁一處鐵皮廠房，場址鐵捲大門深鎖故無法進入，由窗戶目視場址內部堆置大量廢棄物，廠房因廢棄物重壓導致側面鐵皮部分變形，現場未發現堆置廢棄物新增情形。 三、以下空白。"},"geometry":{"x":13384913.417956371,"y":2645896.1735738511}},{"attributes":{"OBJECTID":171,"案件編號":844,"縣市":"臺南市","行政區":"白河區","地址":"中興段1988、1988-1、1990-3地號","地號":"臺南市白河區1988、1988-1、1990-3地號","場址名稱":"臺南市白河區中興段1988、1988-1、1990-3地號","Lon":120.412046,"Lat":23.343049,"廢棄物種類":"一般","最後更新日":"2022/5/16","土水列管場":"否","現場狀態":"一、本次執行非法棄置場址巡查工作。 二、本局於108年11月7日核准本案廢棄混凝土塊、電弧爐煉鋼爐氧化碴(石)、級配於110年8月31日內清除完畢。另本案尚有電弧爐煉鋼爐還原碴(石)尚未提出棄置場址廢棄物清理計畫。 三、場址周圍無農田。 四、本次巡查場址大門深鎖無法進入。"},"geometry":{"x":13404207.646121031,"y":2673557.666991516}},{"attributes":{"OBJECTID":172,"案件編號":845,"縣市":"臺南市","行政區":"東山區","地址":"東原里前大埔段66-5等地號","地號":"臺南市東山區東原里前大埔段66-5、66-9地號","場址名稱":"臺南市東山區東原里前大埔段66-5、66-9地號","Lon":120.442522,"Lat":23.282693,"廢棄物種類":"一般","最後更新日":"2022/7/25","土水列管場":"否","現場狀態":"一、本次執行環保署列管場址巡查工作。 二、場址位於東山區前大埔段66-5、66-9地號，場址內部為地面堆置921.42噸，場內草叢生道路積水濕滑無法走入坡道上方，現址長草並覆蓋，目視廢棄物堆置無異動情形，現場丈量廢棄物堆置體積約60m*5m*3m。 三、以下空白。"},"geometry":{"x":13407600.218896581,"y":2666241.5623289635}},{"attributes":{"OBJECTID":173,"案件編號":847,"縣市":"臺南市","行政區":"新營區","地址":"南紙段182地號","地號":"臺南市新營區南紙段182地號","場址名稱":"臺南市新營區南紙段182地號","Lon":120.28605,"Lat":23.292965,"廢棄物種類":"一般","最後更新日":"2022/4/29","土水列管場":"否","現場狀態":"該公司業於109年12月22日及23日委託工業技術研究院完成掩埋廢棄物區域內、外分別計8點次及6點次之採樣，作為終止清理條件及撰寫廢棄物清理計畫之依據。"},"geometry":{"x":13390181.835579582,"y":2667486.4572218959}},{"attributes":{"OBJECTID":174,"案件編號":849,"縣市":"臺南市","行政區":"善化區","地址":"曾文段1021地號","地號":"臺南市善化區曾文段1021地號","場址名稱":"臺南市善化區曾文段1021地號","Lon":120.274374,"Lat":23.154971,"廢棄物種類":"一般","最後更新日":"2022/7/20","土水列管場":"否","現場狀態":"一、本次執行非法棄置場址巡查工作。 二、場址位於福隆尖端廠房旁土地，由空拍場址內堆置廢棄物為廢塑膠、廢木材及爐石，堆置之廢塑膠及廢木材已被雜草攀附覆蓋，爐石堆置區塊有前次清理痕跡，且地表仍有爐石舖面尚未清理，現場無進行清理施工作業。 三、場址完成清理期限展"},"geometry":{"x":13388882.06913306,"y":2650770.5479707695}},{"attributes":{"OBJECTID":175,"案件編號":850,"縣市":"臺南市","行政區":"西港區","地址":"劉厝里蚶西港10之5號","地號":"臺南市西港區劉厝段1219-1地號","場址名稱":"臺南市西港區劉厝里蚶西港10之5號","Lon":120.182023,"Lat":23.131639,"廢棄物種類":"一般","最後更新日":"2022/7/21","土水列管場":"否","現場狀態":"一、本次執行署列管場址巡查工作。 二、場址位於臺南市西港區劉厝段 1191-1地號，場址內部為地面堆置與地面倉儲廢塑膠混合物廢棄物，現場圍籬阻擋人員無法進入，經手拍廢棄物及週遭，目視廢棄物堆置無異動情形，，場址現場及周圍未發現新增棄置廢棄物情形。 三、以下空白。"},"geometry":{"x":13378601.602883458,"y":2647945.929639393}},{"attributes":{"OBJECTID":176,"案件編號":852,"縣市":"臺南市","行政區":"安南區","地址":"溪南段446地號","地號":"臺南市安南區溪南段446地號","場址名稱":"臺南市安南區溪南段446地號","Lon":120.15238,"Lat":23.067997,"廢棄物種類":"一般","最後更新日":"2022/7/11","土水列管場":"否","現場狀態":"一、本次執行非法棄置場址巡查工作。 二、場址為魚塭道路間，場址內部為堆置營建廢棄物、裝潢修繕廢棄物及一般生活垃圾，目視鴿舍前方地表有鋪設水泥，經比對前次巡查紀錄場址內部廢棄物無新增及減少等情形，場址入口處有架設鐵皮涼亭及水泥鋪面，現場空拍及目視未發現新增?"},"geometry":{"x":13375301.759215157,"y":2640243.7983088181}},{"attributes":{"OBJECTID":177,"案件編號":853,"縣市":"臺南市","行政區":"仁德區","地址":"保甲段1292、1292-1、1292-2地號","地號":"臺南市仁德區保甲段1292、1292-1、1292-2地號","場址名稱":"臺南市仁德區保甲段1292、1292-1、1292-2地號","Lon":120.203055,"Lat":22.919815,"廢棄物種類":"一般","最後更新日":"2022/6/23","土水列管場":"否","現場狀態":"一、本次執行非法棄置場址巡查工作。 二、場址位於仁德區保甲段1292、1292-1、1292-2地號，拍攝場址內堆置廢棄物已清除完畢，現場無進行清理施工作業。 三、以下空白。"},"geometry":{"x":13380942.874361187,"y":2622324.4942252678}},{"attributes":{"OBJECTID":178,"案件編號":855,"縣市":"臺南市","行政區":"安南區","地址":"淵中段242-000地號","地號":"臺南市安南區淵中段242-000地號","場址名稱":"臺南市安南區淵中段242-000地號","Lon":120.179258,"Lat":23.042045,"廢棄物種類":"一般","最後更新日":"2022/5/6","土水列管場":"否","現場狀態":"一、本次執行非法棄置場址巡查工作。 二、場址大門關閉深鎖故無法進入場內，由空拍機拍攝場址內部為堆置大量營建廢棄物，廢棄物未有清理之情形，部分廢棄物表面已覆蓋雜草，場址周圍架設鐵皮圍籬圍繞，四周圍鄰近農地，現場及周圍未發現新增棄置廢棄物情形。 三、本次巡查場"},"geometry":{"x":13378293.804513138,"y":2637104.061627808}},{"attributes":{"OBJECTID":179,"案件編號":857,"縣市":"臺南市","行政區":"後壁區","地址":"竹圍後段359及364-2地號","地號":"臺南市後壁區竹圍後段359及364-2地號","場址名稱":"臺南市後壁區竹圍後段359及364-2地號","Lon":120.306967,"Lat":23.357359,"廢棄物種類":"一般","最後更新日":"2022/4/29","土水列管場":"否","現場狀態":"一、本次執行非法棄置場址巡查工作。 二、場址周圍設有鐵皮圍牆，場址內部已雜草樹木叢生，人員不易進出。三、本次巡查場址無新增廢棄物。 四、以下空白。"},"geometry":{"x":13392510.305326177,"y":2675292.7534371573}},{"attributes":{"OBJECTID":180,"案件編號":858,"縣市":"臺南市","行政區":"安南區","地址":"核館段8地號","地號":"臺南市安南區核館段8地號","場址名稱":"臺南市安南區和館段8地號","Lon":120.239779,"Lat":23.063511,"廢棄物種類":"一般","最後更新日":"2022/7/7","土水列管場":"否","現場狀態":"一、本次執行非法棄置場址巡查工作。 二、場址位於環館路旁鄰近鹽水溪排水線，場址大門深鎖無法進入，目視地表已生長雜草，近場址入口處原堆置點廢棄物已清理完成，位於溫室旁近道路之空地有整地情形，原堆置於空地內之太空包已移至溫室後方空地。 三、本次巡查場址棄置廢棄"},"geometry":{"x":13385030.971353602,"y":2639701.0277289608}},{"attributes":{"OBJECTID":181,"案件編號":859,"縣市":"臺南市","行政區":"白河區","地址":"秀祐段1005、1006、993地號","地號":"臺南市白河區秀祐段1005、1006、993地號","場址名稱":"臺南市白河區秀祐段1005、1006、993地號","Lon":120.3984,"Lat":23.344378,"廢棄物種類":"一般","最後更新日":"2022/5/16","土水列管場":"否","現場狀態":"一、本次執行非法棄置場址巡查工作。 二、現場農地棄置紙容器加工不良之事業廢棄物，附近均為農田。 三、本次巡查場址無新增廢棄物。 四、以下空白。"},"geometry":{"x":13402688.580275934,"y":2673718.8002823279}},{"attributes":{"OBJECTID":182,"案件編號":860,"縣市":"臺南市","行政區":"北門區","地址":"玉港里灰?港129之4號","地號":"臺南市北門區溪底寮段二重港小段(5403)166-13地號","場址名稱":"臺南市北門區玉港里灰?港129之4號","Lon":120.129718,"Lat":23.253257,"廢棄物種類":"混合","最後更新日":"2022/7/22","土水列管場":"否","現場狀態":"一、本次執行署列管場址巡查工作。 二、場址位於臺南市北門區溪底寮段二重港小段166-13地號，場址內部為地面及廠房內堆置太空包廢棄物，現場圍籬阻擋人員無法進入，經空拍廢棄物及週遭，目視廢棄物堆置無異常情形。 三、以下空白。"},"geometry":{"x":13372779.036909094,"y":2662674.6557531809}},{"attributes":{"OBJECTID":183,"案件編號":861,"縣市":"臺南市","行政區":"官田區","地址":"神農段996地號","地號":"臺南市官田區神農段996地號","場址名稱":"臺南市官田區神農段996地號","Lon":120.334727,"Lat":23.184439,"廢棄物種類":"混合","最後更新日":"2022/5/17","土水列管場":"否","現場狀態":"本次執行非法棄置場址巡查工作。 二、場址設有水泥圍牆，周圍為農田有種植情形。 三、本次巡查場址無新增廢棄物。 四、另本案地上堆置廢塑膠混合物已提送棄置場址廢棄物清理計畫清理完成，地上堆置之不明廢液裝之鐵桶、塑膠桶及地下掩埋廢棄物尚未提送棄置場址廢棄物清理計?"},"geometry":{"x":13395600.534337653,"y":2654338.7058856683}},{"attributes":{"OBJECTID":184,"案件編號":862,"縣市":"臺南市","行政區":"關廟區","地址":"龜洞段376-2地號","地號":"臺南市關廟區龜洞段376-2地號","場址名稱":"臺南市關廟區龜洞段376-2地號","Lon":120.35145,"Lat":22.893197,"廢棄物種類":"混合","最後更新日":"2022/5/18","土水列管場":"否","現場狀態":"一、本次執行非法棄置場址巡查工作。 二、場址位於一般道路旁香蕉園農地，經空拍廢棄物堆置於場址前方斜坡地表，場址周圍為農地有種植農作物及雜草樹木叢生荒地，現場棄置廢棄物未發現新增情形。 三、本次巡查場址棄置廢棄物未有移動及新增減少。 四、以下空白。"},"geometry":{"x":13397462.130234074,"y":2619107.721174933}},{"attributes":{"OBJECTID":185,"案件編號":865,"縣市":"臺南市","行政區":"仁德區","地址":"中正西路871號","地號":"臺南市仁德區保甲段1145-5、1155、1283-2、1284、1285","場址名稱":"臺南市仁德區中正西路871號","Lon":120.203177,"Lat":22.921337,"廢棄物種類":"混合","最後更新日":"2022/7/18","土水列管場":"否","現場狀態":"一、本次執行非法棄置場址巡查工作。 二、本案本局110年8月26日審核所送清理計畫書，清理廢線電纜3公噸、附零組件之廢印刷電路板0.5噸、廢鐵、銅及其他化合物約0.5噸；另廢塑膠部分依本局108年11月4日稽查採樣結果，屬有害事業廢棄物，請其另案提送清理計晝至局審查，核准後"},"geometry":{"x":13380956.455364684,"y":2622508.4463213095}},{"attributes":{"OBJECTID":186,"案件編號":866,"縣市":"臺南市","行政區":"下營區","地址":"賀建里45之19號","地號":"臺南市下營區麻豆寮段1773地號","場址名稱":"臺南市下營區賀建里45之19號","Lon":120.293954,"Lat":23.256859,"廢棄物種類":"一般","最後更新日":"2022/5/9","土水列管場":"否","現場狀態":"一、本次執行非法棄置場址巡查工作。 二、場址周圍有農田種植情形。 三、本次巡查場址無新增廢棄物。 四、以下空白。"},"geometry":{"x":13391061.704764694,"y":2663111.08568609}},{"attributes":{"OBJECTID":187,"案件編號":867,"縣市":"臺南市","行政區":"仁德區","地址":"保甲段947-000地號","地號":"臺南市仁德區保甲段947-000地號","場址名稱":"臺南市仁德區保甲段947-000地號","Lon":120.195438,"Lat":22.926209,"廢棄物種類":"一般","最後更新日":"2022/7/18","土水列管場":"否","現場狀態":"一、本次執行非法棄置場址巡查工作。 二、犯嫌葉阿標未領有主管機關核發之廢棄物清除、處理許可文件，逕自承租左述案地從事廢電線粉碎處理作業，並將粉碎後取得之銅、鐵販售牟利。 三、本次巡查場址無新增廢棄物。 四、以下空白。"},"geometry":{"x":13380094.95384158,"y":2623097.3002677918}},{"attributes":{"OBJECTID":188,"案件編號":869,"縣市":"臺南市","行政區":"仁德區","地址":"崑崙段983-000地號","地號":"臺南市仁德區崑崙段983-000地號","場址名稱":"臺南市仁德區崑崙段983-000地號","Lon":120.256256,"Lat":22.928116,"廢棄物種類":"一般","最後更新日":"2022/7/21","土水列管場":"否","現場狀態":"一、本次執行非法棄置場址巡查工作。 二、場址位於國道1號旁鄰近五帝廟溪，場址內部堆置太空包，其內容物為影印機碳粉及碳粉匣、壓克力板、塑膠料件，有部分廢棄物散落地表情形，場址周圍為雜草樹木叢生荒地，場址現場及周圍未發現新增棄置廢棄物情形。 三、本次巡查場址棄?"},"geometry":{"x":13386865.182593783,"y":2623327.7954434007}},{"attributes":{"OBJECTID":237,"案件編號":948,"縣市":"臺南市","行政區":"新市區","地址":"大營里大營路2號D棟","地號":"臺南市新市區大營段1318-0000地號","場址名稱":"臺南市新市區大營里大營路2號D棟(識昌大營廠)","Lon":120.317686,"Lat":23.103687999999998,"廢棄物種類":"有害","最後更新日":"2022/7/19","土水列管場":"否","現場狀態":"一、本次執行環保署列管場址巡查工作。 二、場址位於新市區大營段 1355-1地號，場址內部為地面堆置廢油泥桶廢棄物，經手拍廢棄物及週遭以拉封鎖線，目視廢棄物堆置無異動情形，場址現場及周圍未發現新增棄置廢棄物情形。 三、以下空白。"},"geometry":{"x":13393703.538912605,"y":2644562.7726760143}},{"attributes":{"OBJECTID":238,"案件編號":957,"縣市":"臺南市","行政區":"東山區","地址":"大客段枋子林小段58-227地號(東山服務區旁)","地號":"臺南市東山區大客段枋子林小段58-227地號","場址名稱":"東山區大客段枋子林小段58-227地號棄置案件","Lon":120.40197,"Lat":23.284305,"廢棄物種類":"混合","最後更新日":"2022/7/25","土水列管場":"否","現場狀態":"一、本次執行環保署列管場址巡查工作。 二、場址位於東山區大客段枋子林小段58-227地號，場址內部為地面堆置240噸，場內草叢生道路全部是雜草無法走入，現址長草並覆蓋，場址現場及周圍未發現新增棄置廢棄物情形。 三、以下空白。"},"geometry":{"x":13403085.990864238,"y":2666436.9191205655}},{"attributes":{"OBJECTID":264,"案件編號":998,"縣市":"臺南市","行政區":"歸仁區","地址":" ","地號":"臺南市歸仁區八甲段4030地號","場址名稱":"臺南市歸仁區八甲段4030地號土地","Lon":120.277506,"Lat":22.989929,"廢棄物種類":"一般","最後更新日":"2022/5/5","土水列管場":" ","現場狀態":"一、本次執行非法棄置場址巡查工作。 二、場址為廠房前一處空地，目視廢棄物堆置於空地內，廢棄物以帆布覆蓋且雜草藤蔓攀附，太空包內盛裝之廢棄物種類為塑膠管(條)、廢木材、廢塑膠混合物、壓克力條及壓克力切削碎屑，現場及周圍未發現新增棄置廢棄物情形。 三、本次巡查場"},"geometry":{"x":13389230.721838498,"y":2630800.7658780161}},{"attributes":{"OBJECTID":265,"案件編號":999,"縣市":"臺南市","行政區":"柳營區","地址":"環園西路一段20號","地號":"臺南市柳營區德元段173地號","場址名稱":"臺南市柳營區環園西路一段20號","Lon":120.35428,"Lat":23.273913,"廢棄物種類":"一般","最後更新日":"2022/7/25","土水列管場":" ","現場狀態":"一、本次執行環保署列管場址巡查工作。 二、場址位於柳營區德元段 173地號地號，經空拍場址內部地面堆置廢塑膠混合物，現場圍籬阻擋人員無法進入。 三、以下空白。"},"geometry":{"x":13397777.164404651,"y":2665177.5635269135}},{"attributes":{"OBJECTID":266,"案件編號":1002,"縣市":"臺南市","行政區":"西港區","地址":"南海里中港38之3號","地號":"臺南市西港區南海埔段876地號","場址名稱":"臺南市西港區南海里中港38之3號","Lon":120.194803,"Lat":23.107372,"廢棄物種類":"混合","最後更新日":"2022/4/26","土水列管場":" ","現場狀態":"一、本次執行自行列管場址巡查工作。二、場址位於西港區南海里中港38之3號，場址內部堆置大量廢棄物，現場未發現異常情形。三、本次巡查場址無新增廢棄物。四、以下空白。"},"geometry":{"x":13380024.265908726,"y":2645008.63949005}},{"attributes":{"OBJECTID":270,"案件編號":1009,"縣市":"臺南市","行政區":"學甲區","地址":"新達里山寮58之10號","地號":"臺南市學甲區宅子港段168-5、168-8、168-108、168-202、168-209地號","場址名稱":"臺南市學甲區宅子港段168-5、168-8、168-108、168-202、168-209地號","Lon":120.201605,"Lat":23.238079,"廢棄物種類":"混合","最後更新日":"2022/5/9","土水列管場":" ","現場狀態":"一、 本次執行自行列管場址巡查工作。 二、 場址位於學甲區宅子港段168-5、168-8、168-108、168-202、168-209地號，場址內部堆置大量廢棄物，現場未發現異常情形。 三、 本次巡查場址無新增廢棄物。 四、以下空白。"},"geometry":{"x":13380781.461164337,"y":2660835.7696484025}},{"attributes":{"OBJECTID":277,"案件編號":1029,"縣市":"臺南市","行政區":"後壁區","地址":"嘉安段568段等16筆地號","地號":"臺南市後壁區嘉安段0568、0569、0570、0571、0572、0575-1、0575、0576、0579、0580、0583、0584、0587、0588、0591、0592等16筆地號","場址名稱":"臺南市後壁區嘉安段0568、0569、0570、0571、0572、0575-1、0575、0576、0579、0580、0583、0584、0587、0588、0591、0592等16筆地號","Lon":120.378216,"Lat":23.396687,"廢棄物種類":"一般","最後更新日":"2022/7/20","土水列管場":" ","現場狀態":"一、本次執行非法棄置場址巡查工作。 二、場址位於台1線旁一處農地，廢棄物爐渣粒料為地下掩埋，場址內已設立2處告示牌及CCTV監控設備，由空拍場址地表為雜草叢生荒地，場址鄰近八掌溪，場址現場及周圍未發現新增棄置廢棄物情形。 三、本次巡查場址棄置廢棄物未有移動或新增"},"geometry":{"x":13400441.707674688,"y":2680062.235094599}},{"attributes":{"OBJECTID":334,"案件編號":1251,"縣市":"臺南市","行政區":"龍崎區","地址":"番社段59地號","地號":"臺南市龍崎區番社段59地號","場址名稱":"臺南市龍崎區番社段59地號","Lon":120.420075,"Lat":22.919998,"廢棄物種類":"一般","最後更新日":"2022/7/18","土水列管場":" ","現場狀態":"一、本次執行非法棄置場址巡查工作。 二、場址位於臺南市龍崎區番社段59地號內，由空拍廢棄物棄置於山坡地內，部分地表已生長雜草，周圍鄰近土地未發現廢棄物。 三、本次巡查場址無新增廢棄物。"},"geometry":{"x":13405101.430283511,"y":2622346.6118103079}},{"attributes":{"OBJECTID":335,"案件編號":1252,"縣市":"臺南市","行政區":"龍崎區","地址":"中坑子段743-4地號","地號":"臺南市龍崎區中坑子段743-4地號","場址名稱":"臺南市龍崎區中坑子段743-4地號","Lon":120.37003,"Lat":22.929931,"廢棄物種類":"一般","最後更新日":"2022/7/18","土水列管場":" ","現場狀態":"一、本次執行非場棄置場址巡查工作。 二、場址位於龍崎區中坑子段743-4地號內土地，太空包堆置於道路旁山坡地，目視鄰近道路旁坡地地表有散落塑料顆粒情形，邊坡堆置之太空包預估約6包，周圍道路未發現異常情形。 三、本次巡查場址無新增廢棄物。 四、以下空白。"},"geometry":{"x":13399530.446347099,"y":2623547.173811473}},{"attributes":{"OBJECTID":357,"案件編號":1283,"縣市":"臺南市","行政區":"七股區","地址":"下山子寮段259-1、259-7地號","地號":"臺南市七股區下山子寮段259-1、259-7地號","場址名稱":"七股區下山子寮段地下棄置掩埋","Lon":120.107777,"Lat":23.147142,"廢棄物種類":"一般","最後更新日":"2022/7/14","土水列管場":" ","現場狀態":"一、本次執行非法棄置場址巡查工作。 二、場址位於七股區下山子寮段259-1、259-7地號內空地，目視地表為雜草叢生荒地，現場無新增棄置廢棄物情形，廢棄物種類主要為拆除建築廢棄物及廢塑膠混合物。 三、以下空白。"},"geometry":{"x":13370336.575953009,"y":2649822.6988839149}},{"attributes":{"OBJECTID":360,"案件編號":1286,"縣市":"臺南市","行政區":"麻豆區","地址":"磚子井段R267國有地","地號":"臺南市麻豆區磚子井段524、527、528地號","場址名稱":"麻豆區磚子井段R267國有地","Lon":120.255309,"Lat":23.143536,"廢棄物種類":"一般","最後更新日":"2022/7/21","土水列管場":" ","現場狀態":"一、本次執行環保署列管場址巡查工作。 二、場址位於臺南市麻豆區磚子井段524、527、528地號地號，場址內部為地面堆置黑色粉狀塊狀不明污泥(有刺鼻氨臭味)、廢電線電纜及粉碎廢料廢棄物，現場經手拍廢棄物被雜草覆蓋，目視該場址內回填之廢棄物尚未清理，場址現場及周圍未發"},"geometry":{"x":13386759.763080044,"y":2649386.1427306845}},{"attributes":{"OBJECTID":370,"案件編號":1298,"縣市":"臺南市","行政區":"東山區","地址":"二重溪段197-16、197-41、197-42地號","地號":"東山區二重溪段197-16、197-41、197-42地號","場址名稱":"東山區二重溪段197-16、197-41、197-42地號非法棄置","Lon":120.396944,"Lat":23.263747,"廢棄物種類":"一般","最後更新日":"2022/5/3","土水列管場":" ","現場狀態":"一、本次執行自行列管場址巡查工作。 二、場址位於東山區二重溪段197-16、197-41、197-42地號，現場無人且大門深鎖，場址周圍設置全圍籬無法進入。 三以下空白。"},"geometry":{"x":13402526.499131337,"y":2663945.6908938526}},{"attributes":{"OBJECTID":371,"案件編號":1300,"縣市":"臺南市","行政區":"新市區","地址":"潭頂里100-30號","地號":"新市區東大社段 1531地號","場址名稱":"新市區東大社段1531地號(新市區潭頂里100-30號)","Lon":120.334911,"Lat":23.083731,"廢棄物種類":"混合","最後更新日":"2022/7/6","土水列管場":" ","現場狀態":"一、本次執行非法棄置場址巡查工作。 二、場址位於新市區示範公墓旁，本次現場巡查地表RC鋪面遭拆除，目視地表已覆土，場址廢棄物與鄰近種植農地尚有一定距離，應尚無影響農作物生長情形。 三、場址棄置廢棄物部份，一般事業廢棄物(廢塑膠混合物、廢印表機、廢輪胎)均集中堆"},"geometry":{"x":13395621.017167522,"y":2642147.6311332169}},{"attributes":{"OBJECTID":373,"案件編號":1302,"縣市":"臺南市","行政區":"安南區","地址":"安清路與城西街三段1巷口","地號":"安南區城西段808-1地號","場址名稱":"安南區城西段808-1地號","Lon":120.076007,"Lat":23.044791,"廢棄物種類":"一般","最後更新日":"2022/7/7","土水列管場":" ","現場狀態":"一、本次執行自行列管場址巡查工作。 二、場址位於安南區佃北段620地號，經空拍及目視場址因土地重劃已無廢棄物。 三、本次巡查週圍未發現異常情形。 四、以下空白。"},"geometry":{"x":13366799.955720998,"y":2637436.250803641}},{"attributes":{"OBJECTID":374,"案件編號":1303,"縣市":"臺南市","行政區":"左鎮區","地址":"光和段332-1地號","地號":"左鎮區光和段332-1地號","場址名稱":"左鎮區光和段332-1地號","Lon":120.377448,"Lat":23.078342,"廢棄物種類":"一般","最後更新日":"2022/5/26","土水列管場":" ","現場狀態":"一、本次執行非法棄置場址巡查工作。 二、場址位於左鎮區光和段332-1地號內空地，目視地表為雜草叢生荒地，場址入口處大門深鎖故 無法進入場址內，場址現場及周圍未發現新增棄置廢棄物情形。 三、以下空白。"},"geometry":{"x":13400356.214367699,"y":2641495.5306697404}},{"attributes":{"OBJECTID":417,"案件編號":1368,"縣市":"臺南市","行政區":"新化區","地址":"新化段王公廟小段1230、1230之1、1230之2等地號","地號":"臺南市新化區新化段王公廟小段1230地號 臺南市新化區新化段王公廟小段1230-1地號 臺南市新化區新化段王公廟小段1230-2地號","場址名稱":"臺南市新化區新化段王公廟小段1230、1230之1、1230之2等地號","Lon":120.327708,"Lat":23.027326,"廢棄物種類":"一般","最後更新日":"2022/7/22","土水列管場":" ","現場狀態":"一、本次執行環保署列管場址巡查工作。 二、場址位於臺南市新化區新化段王公廟小段1230、1230之1、1230之2等地號，場址內部為地面堆置與地面倉儲廢塑膠混合物、廢塑膠混合碎片、廢木材混合物，現場雜草叢生，經空拍與手拍廢棄物及週遭，目視廢棄物堆置無異動情形，場址現場?"},"geometry":{"x":13394819.182839913,"y":2635323.589735012}},{"attributes":{"OBJECTID":418,"案件編號":1369,"縣市":"臺南市","行政區":"新市區","地址":"大洲段808-15地號","地號":"臺南市新市區大洲段808-15地號 臺南市新市區大洲段808-17地號 臺南市新市區大洲段808-6地號 臺南市安定區六塊寮段227-5地號 臺南市安定區六塊寮段228地號 臺南市安定區六塊寮段231-2地號 臺南市安定區六塊寮段232-4地號 臺南市安定區六塊寮段261地號 臺南市安定區六塊寮段26","場址名稱":"新市區大洲段808-15地號","Lon":120.242651,"Lat":23.077154,"廢棄物種類":"一般","最後更新日":"2022/5/9","土水列管場":" ","現場狀態":"一、本次執行非法棄置場址巡查工作。 二、場址位於台8線旁一處農地(為台糖所有地)，廢棄物為地下掩埋，場址於110年配合檢調辦理廢棄物調查作業，廢棄物面積約26,997.84平方公尺，重量估算約約38,755.1公噸，廢棄物種類主要為廢塑膠混合物、營建混合物以及生活垃圾，由空拍場"},"geometry":{"x":13385350.68095817,"y":2641351.7792424322}}]}