{"objectIdFieldName":"OBJECTID","uniqueIdField":{"name":"OBJECTID","isSystemMaintained":true},"globalIdFieldName":"","geometryType":"esriGeometryPoint","spatialReference":{"wkid":102100,"latestWkid":3857},"fields":[{"name":"OBJECTID","type":"esriFieldTypeOID","alias":"OBJECTID","sqlType":"sqlTypeOther","domain":null,"defaultValue":null},{"name":"案件編號","type":"esriFieldTypeInteger","alias":"案件編號","sqlType":"sqlTypeOther","domain":null,"defaultValue":null},{"name":"縣市","type":"esriFieldTypeString","alias":"縣市","sqlType":"sqlTypeOther","length":254,"domain":null,"defaultValue":null},{"name":"行政區","type":"esriFieldTypeString","alias":"行政區","sqlType":"sqlTypeOther","length":254,"domain":null,"defaultValue":null},{"name":"地址","type":"esriFieldTypeString","alias":"地址","sqlType":"sqlTypeOther","length":254,"domain":null,"defaultValue":null},{"name":"地號","type":"esriFieldTypeString","alias":"地號","sqlType":"sqlTypeOther","length":254,"domain":null,"defaultValue":null},{"name":"場址名稱","type":"esriFieldTypeString","alias":"場址名稱","sqlType":"sqlTypeOther","length":254,"domain":null,"defaultValue":null},{"name":"Lon","type":"esriFieldTypeDouble","alias":"Lon","sqlType":"sqlTypeOther","domain":null,"defaultValue":null},{"name":"Lat","type":"esriFieldTypeDouble","alias":"Lat","sqlType":"sqlTypeOther","domain":null,"defaultValue":null},{"name":"廢棄物種類","type":"esriFieldTypeString","alias":"廢棄物種類","sqlType":"sqlTypeOther","length":254,"domain":null,"defaultValue":null},{"name":"最後更新日","type":"esriFieldTypeString","alias":"最後更新日","sqlType":"sqlTypeOther","length":254,"domain":null,"defaultValue":null},{"name":"土水列管場","type":"esriFieldTypeString","alias":"土水列管場","sqlType":"sqlTypeOther","length":254,"domain":null,"defaultValue":null},{"name":"現場狀態","type":"esriFieldTypeString","alias":"現場狀態","sqlType":"sqlTypeOther","length":254,"domain":null,"defaultValue":null}],"features":[{"attributes":{"OBJECTID":3,"案件編號":23,"縣市":"高雄市","行政區":"小港區","地址":"位於友成巷(山邊路)與高坪11路交接處，入口於山邊路上","地號":"水庫段277、277-1~277-3、277-5、277-8、281~283、282-1、286地號","場址名稱":"水庫段277地號等六筆","Lon":120.381651,"Lat":22.537931,"廢棄物種類":"混合","最後更新日":"2022/6/22","土水列管場":"否","現場狀態":"當日巡查時，無人為活動，無異常情形。"},"geometry":{"x":13400824.090139506,"y":2576234.0316160731}},{"attributes":{"OBJECTID":4,"案件編號":24,"縣市":"高雄市","行政區":"小港區","地址":"小港區大房路43-5號","地號":"坪北段434地號","場址名稱":"坪北段434地號","Lon":120.387132,"Lat":22.566973,"廢棄物種類":"一般","最後更新日":"2022/6/15","土水列管場":"否","現場狀態":"現址為景觀餐廳，四周巡查無異常之情事。"},"geometry":{"x":13401434.232273903,"y":2579734.6703293086}},{"attributes":{"OBJECTID":5,"案件編號":28,"縣市":"高雄市","行政區":"小港區","地址":" ","地號":"坪北段418、418-1、418-2、418-3地號","場址名稱":"坪北段418、418-1、418-2、418-3地號","Lon":120.385566,"Lat":22.569212,"廢棄物種類":"一般","最後更新日":"2022/6/15","土水列管場":"否","現場狀態":"當日巡查，現場已開始種植植被，無發現異常之情事。"},"geometry":{"x":13401259.90602129,"y":2580004.583498301}},{"attributes":{"OBJECTID":35,"案件編號":212,"縣市":"高雄市","行政區":"大寮區","地址":"大發工業區大有一街14號","地號":"大寮段3276-1、大寮段3276-2","場址名稱":"大發工業區大有一街14號","Lon":120.429652,"Lat":22.588835,"廢棄物種類":"混合","最後更新日":"2022/5/2","土水列管場":"否","現場狀態":"當日巡查，大門深鎖，未發現可疑車輛進出及人為活動異常情形"},"geometry":{"x":13406167.537055574,"y":2582370.3390575079}},{"attributes":{"OBJECTID":36,"案件編號":218,"縣市":"高雄市","行政區":"大寮區","地址":" ","地號":"會明段54、53(赤崁段潮寮小段1639、1640)","場址名稱":"赤崁段潮寮小段1639、1640","Lon":120.415498,"Lat":22.542943,"廢棄物種類":"一般","最後更新日":"2022/5/11","土水列管場":"否","現場狀態":"當日巡查，未發現異常情事。"},"geometry":{"x":13404591.92100434,"y":2576838.1109997383}},{"attributes":{"OBJECTID":37,"案件編號":222,"縣市":"高雄市","行政區":"鳥松區","地址":" ","地號":"灣裡段280~282地號","場址名稱":"十九灣段227~229","Lon":120.386418,"Lat":22.683499,"廢棄物種類":"一般","最後更新日":"2022/6/13","土水列管場":"否","現場狀態":"該場址目前為一片鳳梨田，當日巡查未發現異常情形。"},"geometry":{"x":13401354.750196276,"y":2593787.8053733078}},{"attributes":{"OBJECTID":38,"案件編號":223,"縣市":"高雄市","行政區":"鳥松區","地址":" ","地號":"灣裡段231地號","場址名稱":"十九灣段五十八之七","Lon":120.384086,"Lat":22.685984,"廢棄物種類":"一般","最後更新日":"2022/6/13","土水列管場":"否","現場狀態":"該場址內雜草覆蓋，當日巡查無異常情形。"},"geometry":{"x":13401095.153085705,"y":2594087.6284126695}},{"attributes":{"OBJECTID":39,"案件編號":225,"縣市":"高雄市","行政區":"茄萣區","地址":" ","地號":"興達段0007地號","場址名稱":"林海魚塭六處","Lon":120.211922,"Lat":22.881922,"廢棄物種類":"一般","最後更新日":"2022/6/13","土水列管場":"否","現場狀態":"當日巡查，目視判斷無廢棄物，無異常情事。"},"geometry":{"x":13381929.944354126,"y":2617745.3328961558}},{"attributes":{"OBJECTID":40,"案件編號":226,"縣市":"高雄市","行政區":"大社區","地址":"蜈蜞潭","地號":"尖山腳段0024地號","場址名稱":"蜈蜞潭","Lon":120.380642,"Lat":22.741983,"廢棄物種類":"一般","最後更新日":"2022/6/8","土水列管場":"否","現場狀態":"當日巡查，該場址整地乾淨目前種植農作物，未發現任何異常情事。"},"geometry":{"x":13400711.768799398,"y":2600845.5252299365}},{"attributes":{"OBJECTID":41,"案件編號":228,"縣市":"高雄市","行政區":"美濃區","地址":" ","地號":"龜山段61地號","場址名稱":"龜山段61地號","Lon":120.567971,"Lat":22.847808,"廢棄物種類":"一般","最後更新日":"2022/5/13","土水列管場":"否","現場狀態":"本日巡查，四周設有圍籬，現為農業用地，無發現異常情事。"},"geometry":{"x":13421565.137671668,"y":2613623.9362035836}},{"attributes":{"OBJECTID":42,"案件編號":232,"縣市":"高雄市","行政區":"岡山區","地址":"新樂街132號","地號":"台安段0977、0932 ，陀子段87-1、87-3、87-5、87-6、87-7、87-8、87-9、87-13","場址名稱":"崧聖處理廠、固化物掩埋場","Lon":120.29463199999999,"Lat":22.806648,"廢棄物種類":"一般","最後更新日":"2022/6/14","土水列管場":"否","現場狀態":"當日巡查時，無發現任何異常情形。"},"geometry":{"x":13391137.179356052,"y":2608652.6708654524}},{"attributes":{"OBJECTID":43,"案件編號":235,"縣市":"高雄市","行政區":"小港區","地址":"高雄植物園對面空地","地號":"大寮區新庄段783、783-1、783-2、783-3、783-4、783-5、783-6、783-7、783-8、783-9、783-10、783-11地號","場址名稱":"高雄植物園對面空地","Lon":120.394174,"Lat":22.556647,"廢棄物種類":"一般","最後更新日":"2022/5/5","土水列管場":"否","現場狀態":"現場巡查時，該場址雜草叢生，並無發現異常情形。"},"geometry":{"x":13402218.144137884,"y":2578489.9196687639}},{"attributes":{"OBJECTID":44,"案件編號":236,"縣市":"高雄市","行政區":"大寮區","地址":"新厝路891號噴砂廠","地號":"高雄縣大寮鄉新庄段729、732、733、734、739、740、742、743、751、760、761、763、764、765、766、767、769","場址名稱":"新厝路891號噴砂廠","Lon":120.396713,"Lat":22.559526,"廢棄物種類":"一般","最後更新日":"2022/5/2","土水列管場":"否","現場狀態":"該場址上的噴砂廠營運中，現場有人為活動但無異常情形。"},"geometry":{"x":13402500.784344455,"y":2578836.9602405508}},{"attributes":{"OBJECTID":45,"案件編號":237,"縣市":"高雄市","行政區":"大寮區","地址":"新厝路養鴨場(上方空地在其右側，噴砂場位於左側)","地號":"高雄縣大寮鄉新庄段745、746、750地號","場址名稱":"新厝路養鴨場","Lon":120.39804,"Lat":22.559002,"廢棄物種類":"一般","最後更新日":"2022/5/2","土水列管場":"否","現場狀態":"當日巡查，大門開啟，四周巡查無可疑人員及異常之情事。"},"geometry":{"x":13402648.505313313,"y":2578773.7955834605}},{"attributes":{"OBJECTID":67,"案件編號":327,"縣市":"高雄市","行政區":"大寮區","地址":"大潭路往東左轉後厝路前行約600公尺","地號":"明善段1233、1159、1234、1236、1237、1238、1240、1222、1223、1226、1230、1232、1245","場址名稱":"大寮區明善段1233等13筆地號","Lon":120.390119,"Lat":22.567474,"廢棄物種類":"混合","最後更新日":"2022/5/5","土水列管場":"否","現場狀態":"當日巡查，無異常情事發生"},"geometry":{"x":13401766.743609589,"y":2579795.0658542463}},{"attributes":{"OBJECTID":78,"案件編號":394,"縣市":"高雄市","行政區":"路竹區","地址":"華正路及延平路交叉內巷子","地號":"高雄市路竹區華山段859-1地號","場址名稱":"華山段859-1地號","Lon":120.239866,"Lat":22.860965,"廢棄物種類":"一般","最後更新日":"2022/6/14","土水列管場":"否","現場狀態":"當日巡查時，現場無人為活動及可疑車輛進出，未發現有異常情事。"},"geometry":{"x":13385040.656195467,"y":2615213.343280002}},{"attributes":{"OBJECTID":90,"案件編號":417,"縣市":"高雄市","行政區":"小港區","地址":" ","地號":"坪鳳段550地號","場址名稱":"坪鳳段550地號","Lon":120.383293,"Lat":22.546255,"廢棄物種類":"一般","最後更新日":"2022/5/5","土水列管場":"否","現場狀態":"該場址為一停車場，經四周巡查，無發現可疑車輛及異常之情事。"},"geometry":{"x":13401006.876763213,"y":2577237.3071592706}},{"attributes":{"OBJECTID":91,"案件編號":418,"縣市":"高雄市","行政區":"小港區","地址":" ","地號":"水庫段299.299-1.302.303等4筆地號","場址名稱":"水庫段299等4筆地號","Lon":120.372992,"Lat":22.527231,"廢棄物種類":"混合","最後更新日":"2022/6/15","土水列管場":"否","現場狀態":"當日巡查時，惟鐵門為開啟狀態，現場巡查無發現異常情形。"},"geometry":{"x":13399860.174667289,"y":2574944.4702665592}},{"attributes":{"OBJECTID":92,"案件編號":419,"縣市":"高雄市","行政區":"大寮區","地址":" ","地號":"新庄段517.518.520.522.523地號","場址名稱":"新庄段0517等5筆地號","Lon":120.402467,"Lat":22.555832,"廢棄物種類":"一般","最後更新日":"2022/5/5","土水列管場":"否","現場狀態":"當日巡查時，大門深鎖，該場址上的噴砂廠營運中，現場有人為活動並無異常情形發生。"},"geometry":{"x":13403141.316699721,"y":2578391.6792526329}},{"attributes":{"OBJECTID":93,"案件編號":420,"縣市":"高雄市","行政區":"大寮區","地址":" ","地號":"新庄段660.661地號","場址名稱":"新庄段660等2筆地號","Lon":120.399292,"Lat":22.558067,"廢棄物種類":"一般","最後更新日":"2022/5/5","土水列管場":"否","現場狀態":"該場址上的砂石廠營運中，經現場巡查有人為活動、無異常情形。"},"geometry":{"x":13402787.877335785,"y":2578661.0884255753}},{"attributes":{"OBJECTID":100,"案件編號":448,"縣市":"高雄市","行政區":"大寮區","地址":" ","地號":"高雄市大寮區潭平段488-1~668地號","場址名稱":"潭平段631等93筆地號","Lon":120.387395,"Lat":22.571163,"廢棄物種類":"混合","最後更新日":"2022/6/15","土水列管場":"否","現場狀態":"當日巡查，場址內無發現任何廢棄物。"},"geometry":{"x":13401463.509348631,"y":2580239.7816430428}},{"attributes":{"OBJECTID":105,"案件編號":487,"縣市":"高雄市","行政區":"仁武區","地址":" ","地號":"仁義段851、852、853地號","場址名稱":"仁福村活動中心-仁武區仁義段851、852、853地號","Lon":120.380749,"Lat":22.707908,"廢棄物種類":"一般","最後更新日":"2022/6/13","土水列管場":"否","現場狀態":"當日巡查時，現場無人為活動，未發現任何異常情事。"},"geometry":{"x":13400723.680033633,"y":2596733.0629732958}},{"attributes":{"OBJECTID":189,"案件編號":875,"縣市":"高雄市","行政區":"杉林區","地址":"茄苳湖段286地號","地號":"高雄市杉林區茄苳湖段286地號","場址名稱":"高雄市杉林區茄苳湖段286地號","Lon":120.561377,"Lat":23.013226,"廢棄物種類":"一般","最後更新日":"2022/5/13","土水列管場":"否","現場狀態":"當日巡查，目視無廢棄物堆置，無異常情事發生"},"geometry":{"x":13420831.096936801,"y":2633618.1769581586}},{"attributes":{"OBJECTID":190,"案件編號":876,"縣市":"高雄市","行政區":"小港區","地址":"坪南段0367-0002地號","地號":"高雄市小港區坪南段0367-0002地號","場址名稱":"高雄市小港區坪南段0367-0002地號","Lon":120.376291,"Lat":22.558049,"廢棄物種類":"一般","最後更新日":"2022/5/5","土水列管場":"否","現場狀態":"當日巡查時，大門深鎖，現場無可疑車輛進出及異常之情事。"},"geometry":{"x":13400227.417683979,"y":2578658.9186778334}},{"attributes":{"OBJECTID":191,"案件編號":877,"縣市":"高雄市","行政區":"大寮區","地址":"赤崁段潮州寮小段1636-0000地號","地號":"高雄市大寮區赤崁段潮州寮小段1636-0000地號","場址名稱":"高雄市大寮區赤崁段潮州寮小段1636-0000地號","Lon":120.414769,"Lat":22.542089,"廢棄物種類":"一般","最後更新日":"2022/5/11","土水列管場":"否","現場狀態":"當日巡查，大門有打開，該場址雜草叢生，未發現人為活動。"},"geometry":{"x":13404510.769057361,"y":2576735.1797448993}},{"attributes":{"OBJECTID":192,"案件編號":878,"縣市":"高雄市","行政區":"彌陀區","地址":"安港段86地號","地號":"高雄市彌陀區安港段86地號","場址名稱":"高雄市彌陀區安港段86地號","Lon":120.231871,"Lat":22.798596,"廢棄物種類":"一般","最後更新日":"2022/6/13","土水列管場":"否","現場狀態":"當日巡查未發現人為活動及可疑車輛進出，無異常情事。"},"geometry":{"x":13384150.656870002,"y":2607680.3337325016}},{"attributes":{"OBJECTID":193,"案件編號":879,"縣市":"高雄市","行政區":"大寮區","地址":"赤崁段2304地號","地號":"高雄市大寮區赤崁段2304地號","場址名稱":"高雄市大寮區赤崁段2304地號","Lon":120.40428,"Lat":22.535214,"廢棄物種類":"有害","最後更新日":"2022/5/11","土水列管場":"否","現場狀態":"當日巡查，無人為活動及可疑車輛進出，未發現有異常情事"},"geometry":{"x":13403343.138933185,"y":2575906.5699405367}},{"attributes":{"OBJECTID":194,"案件編號":880,"縣市":"高雄市","行政區":"梓官區","地址":"梓義段0511-0000地號土地","地號":"高雄市梓官區梓義段0511-0000地號土地","場址名稱":"高雄市梓官區梓義段0511-0000地號土地","Lon":120.257355,"Lat":22.76528,"廢棄物種類":"一般","最後更新日":"2022/5/10","土水列管場":"否","現場狀態":"當日巡查時，場址周遭設置圍籬，目前地號已在施工中，目視該場址無廢棄物堆置，且無異常情事發生。"},"geometry":{"x":13386987.522749636,"y":2603657.7962832651}},{"attributes":{"OBJECTID":195,"案件編號":881,"縣市":"高雄市","行政區":"湖內區","地址":"劉家里仁愛街206號","地號":"高雄市湖內區劉家段(2924)681地號","場址名稱":"高雄市湖內區劉家里仁愛街206號","Lon":120.21815,"Lat":22.89359,"廢棄物種類":"一般","最後更新日":"2022/6/13","土水列管場":"否","現場狀態":"當日巡查為住宅區及公園無可疑車輛進出，未發現有異常情事。"},"geometry":{"x":13382623.242078517,"y":2619155.2103603748}},{"attributes":{"OBJECTID":196,"案件編號":882,"縣市":"高雄市","行政區":"大寮區","地址":"會結路86之23號(地號：會明段11~16、59地號土地)","地號":"高雄市大寮區會結路86之23號(地號：會明段11~16、59地號土地)","場址名稱":"高雄市大寮區會結路86之23號(地號：會明段11~16、59地號土地)","Lon":120.415157,"Lat":22.542546,"廢棄物種類":"一般","最後更新日":"2022/5/11","土水列管場":"否","現場狀態":"當日巡查，大門深鎖，無可疑車輛進出及異常情事。"},"geometry":{"x":13404553.961009352,"y":2576790.2610959061}},{"attributes":{"OBJECTID":197,"案件編號":884,"縣市":"高雄市","行政區":"路竹區","地址":"永華路57-6號","地號":"高雄市路竹區永華路57-6號","場址名稱":"高雄市路竹區永華路57-6號","Lon":120.267254,"Lat":22.885774,"廢棄物種類":"一般","最後更新日":"2022/5/3","土水列管場":"否","現場狀態":"現場巡查時，大門深鎖，無可疑車輛進出，未發現有異常情事。"},"geometry":{"x":13388089.474348832,"y":2618210.767529428}},{"attributes":{"OBJECTID":198,"案件編號":885,"縣市":"高雄市","行政區":"小港區","地址":"坪南段367-2、3地號","地號":"高雄市小港區坪南段367-2、3地號","場址名稱":"高雄市小港區坪南段367-2、3地號","Lon":120.376411,"Lat":22.558312,"廢棄物種類":"一般","最後更新日":"2022/5/5","土水列管場":"否","現場狀態":"當日巡查時，大門深鎖，現場無可疑車輛進出及異常之情事。"},"geometry":{"x":13400240.776038229,"y":2578690.6213059509}},{"attributes":{"OBJECTID":199,"案件編號":886,"縣市":"高雄市","行政區":"大寮區","地址":"巷尾路8號","地號":"高雄市大寮區琉球段(1740)245地號","場址名稱":"高雄市大寮區巷尾路8號","Lon":120.409212,"Lat":22.618589,"廢棄物種類":"有害","最後更新日":"2022/6/15","土水列管場":"否","現場狀態":"當日巡查時，四周圍籬有一部分已經拆除，現場無人為活動，無異常情事。"},"geometry":{"x":13403892.166651962,"y":2585958.1345808436}},{"attributes":{"OBJECTID":200,"案件編號":888,"縣市":"高雄市","行政區":"仁武區","地址":"竹圍段1591等3筆地號","地號":"高雄市仁武區竹圍段1591等3筆地號","場址名稱":"高雄市仁武區竹圍段1591等3筆地號","Lon":120.343049,"Lat":22.692786,"廢棄物種類":"一般","最後更新日":"2022/6/8","土水列管場":"否","現場狀態":"當日巡查時，現場目視廢棄物已清除完畢，無異常情事發生。"},"geometry":{"x":13396526.935213493,"y":2594908.3386907778}},{"attributes":{"OBJECTID":201,"案件編號":889,"縣市":"高雄市","行政區":"大寮區","地址":"大寮堤防段","地號":" ","場址名稱":"高雄市大寮區大寮堤防段","Lon":120.427478,"Lat":22.600836,"廢棄物種類":"一般","最後更新日":"2022/6/15","土水列管場":"否","現場狀態":"當日巡查，目視無廢棄物堆置，無異常情事發生。"},"geometry":{"x":13405925.52843474,"y":2583817.3497249903}},{"attributes":{"OBJECTID":202,"案件編號":890,"縣市":"高雄市","行政區":"旗山區","地址":"旗山段49-251地號國有土地","地號":"高雄市旗山段49-251地號國有土地","場址名稱":"高雄市旗山段49-251地號國有土地","Lon":120.478135,"Lat":22.912911,"廢棄物種類":"一般","最後更新日":"2022/5/13","土水列管場":"否","現場狀態":"當日巡查，無人為活動及可疑車輛進出，未發現有異常情事。"},"geometry":{"x":13411564.639937768,"y":2621490.08833822}},{"attributes":{"OBJECTID":203,"案件編號":891,"縣市":"高雄市","行政區":"路竹區","地址":"樹人段569等地號(高雄市大寮區華中路20號)","地號":"高雄市路竹區樹人段569等地號(高雄市大寮區華中路20號)","場址名稱":"高雄市路竹區樹人段569等地號(高雄市大寮區華中路20號)","Lon":120.269261,"Lat":22.887913,"廢棄物種類":"一般","最後更新日":"2022/5/3","土水列管場":"否","現場狀態":"現場巡查時，無可疑車輛及人員進出，無異常之情事。"},"geometry":{"x":13388312.892558292,"y":2618469.2273031943}},{"attributes":{"OBJECTID":204,"案件編號":892,"縣市":"高雄市","行政區":"鳥松區","地址":"大腳腿段1491-0000地號","地號":"高雄市鳥松區大腳腿段1491-0000地號","場址名稱":"高雄市鳥松區大腳腿段1491-0000地號","Lon":120.385387,"Lat":22.646255,"廢棄物種類":"一般","最後更新日":"2022/6/13","土水列管場":"否","現場狀態":"當日巡查時，無人為活動或車輛進出異常情事，目前待解列中。"},"geometry":{"x":13401239.979814542,"y":2589294.8514856216}},{"attributes":{"OBJECTID":205,"案件編號":904,"縣市":"高雄市","行政區":"大社區","地址":"大社路395之35號","地號":"高雄市大社區尖山腳段(2030)714地號","場址名稱":"高雄市大社區大社路395之35號","Lon":120.372839,"Lat":22.742052,"廢棄物種類":"一般","最後更新日":"2022/6/8","土水列管場":"否","現場狀態":"當日巡查，大門深鎖，未發現人為活動及異常之情事。"},"geometry":{"x":13399843.142800668,"y":2600853.8537290646}},{"attributes":{"OBJECTID":206,"案件編號":905,"縣市":"高雄市","行政區":"燕巢區","地址":"湖內巷2之15號等11處","地號":"高雄市燕巢區湖子內段(2503)52-2地號等11處","場址名稱":"高雄市燕巢區湖內巷2之15號等11處","Lon":120.374821,"Lat":22.778984,"廢棄物種類":"混合","最後更新日":"2022/5/20","土水列管場":"否","現場狀態":"中: 大寮區磚仔?段2127、2128地號(本日巡查無異常情事生) 東: 大寮區磚仔?段3176-3、3176-4地號(本日巡查無異常情事生) 南: 大寮區潮興路107巷66號倉庫(本日巡查無異常情事生) 西: 林園區工業二路270巷88號昌庫(本日巡查無異常情事生) 北: 大寮區會結南段779、797地號(本日?"},"geometry":{"x":13400063.778094748,"y":2605312.2832998973}},{"attributes":{"OBJECTID":207,"案件編號":907,"縣市":"高雄市","行政區":"鼓山區","地址":"平和里7鄰平川街10號","地號":"仁武區烏林段871、873、874地號","場址名稱":"高雄市鼓山區平和里7鄰平川街10號","Lon":120.375927,"Lat":22.697072,"廢棄物種類":"一般","最後更新日":"2022/6/6","土水列管場":"否","現場狀態":"1.旨案實際棄置地號為仁武區鳥林段871、873、874地號 2.行為人陳陸清提送清理計畫書，本局110年10月20日同意備查，委託再利用廢木材約20公噸，清理期限至110年12月31日止。"},"geometry":{"x":13400186.897422856,"y":2595425.4963660976}},{"attributes":{"OBJECTID":208,"案件編號":908,"縣市":"高雄市","行政區":"大寮區","地址":"林內段114地號土地","地號":"高雄市大寮區林內段114地號土地","場址名稱":"高雄市大寮區林內段114地號土地","Lon":120.403423,"Lat":22.574808,"廢棄物種類":"一般","最後更新日":"2022/6/15","土水列管場":"否","現場狀態":"當日巡查，現場廢棄物已清理完畢，無異常之情事。"},"geometry":{"x":13403247.738135081,"y":2580679.2048126743}},{"attributes":{"OBJECTID":209,"案件編號":909,"縣市":"高雄市","行政區":"鼓山區","地址":"龍華段一小段1090-0007地號土地","地號":"高雄市鼓山區龍華段一小段1090-0007地號土地","場址名稱":"高雄市鼓山區龍華段一小段1090-0007地號土地","Lon":120.293321,"Lat":22.666599,"廢棄物種類":"一般","最後更新日":"2022/5/10","土水列管場":"否","現場狀態":"當日巡查未發現人為活動及可疑 車輛進出，未發現有異常情事。"},"geometry":{"x":13390991.239581188,"y":2591748.9118899889}},{"attributes":{"OBJECTID":210,"案件編號":910,"縣市":"高雄市","行政區":"大寮區","地址":"義堂段0198-0000及0315-0008地號土地","地號":"高雄市大寮區義堂段0198-0000及0315-0008地號土地","場址名稱":"高雄市大寮區義堂段0198-0000及0315-0008地號土地","Lon":120.423721,"Lat":22.645627,"廢棄物種類":"一般","最後更新日":"2022/6/15","土水列管場":"否","現場狀態":"聯廣合企業有限公司於110年5月11日至110年9月27日分別清理R-0503、R-0302、R-0701、D-0299、D-1801、C-0299，清理量分別為5.98、1、5、8.27、18.9、0.31公噸。(共計39.46公噸)"},"geometry":{"x":13405507.301142817,"y":2589219.1027313154}},{"attributes":{"OBJECTID":211,"案件編號":911,"縣市":"高雄市","行政區":"燕巢區","地址":"鳳龍段954地號","地號":"高雄市燕巢區鳳龍段954地號","場址名稱":"高雄市燕巢區鳳龍段954地號","Lon":120.350864,"Lat":22.754661,"廢棄物種類":"一般","最後更新日":"2022/5/20","土水列管場":"否","現場狀態":"灣橋頭地方法院已判決，上訴至台灣高等法院高雄分院審理中，本局110年4月7日函詢證據保全，高分院110年7月26號函覆，仍有證據保全之需要，請暫後辦理廢棄物清除處理事宜，後續俟解除證據保全後，依法命清理義務人限期清理。"},"geometry":{"x":13397396.897007583,"y":2602375.8761296528}},{"attributes":{"OBJECTID":212,"案件編號":912,"縣市":"高雄市","行政區":"小港區","地址":"坪鳳段637地號","地號":"高雄市小港區坪鳳段637地號","場址名稱":"高雄市小港區坪鳳段637地號","Lon":120.380893,"Lat":22.54316,"廢棄物種類":"一般","最後更新日":"2022/6/15","土水列管場":"否","現場狀態":"當日巡查時，現場仍有堆置廢塑膠混合物"},"geometry":{"x":13400739.709978646,"y":2576864.265783865}},{"attributes":{"OBJECTID":213,"案件編號":913,"縣市":"高雄市","行政區":"燕巢區","地址":"滾水路107號廠房","地號":"高雄市燕巢區觀水段(2537)634地號","場址名稱":"高雄市燕巢區滾水路107號廠房","Lon":120.327913,"Lat":22.777568,"廢棄物種類":"一般","最後更新日":"2022/5/20","土水列管場":"否","現場狀態":"啟貞建設有限公司於110年3月27至110年7月17日，委託清理廢棄物廢塑膠混合物(D-0299)，數量約96.74噸。"},"geometry":{"x":13394842.003386784,"y":2605141.3216427821}},{"attributes":{"OBJECTID":214,"案件編號":914,"縣市":"高雄市","行政區":"杉林區","地址":"上平里南河巷5號","地號":"杉林區新庄段1330-1地號","場址名稱":"高雄市杉林區上平里南河巷5號","Lon":120.547673,"Lat":22.981277,"廢棄物種類":"一般","最後更新日":"2022/5/13","土水列管場":"否","現場狀態":"內政部保安警察第七總隊第三大隊108年5月15日移請臺灣橋頭地方檢察署偵辦，本局110年2月26日函詢台灣橋頭地方檢察署證據保全之必要，該署110年7月26日起訴吳源勝並移情請台灣橋頭地方法院審理中，後續俟解除證據保全後完成清理事宜"},"geometry":{"x":13419305.574663932,"y":2629754.5644258666}},{"attributes":{"OBJECTID":215,"案件編號":915,"縣市":"高雄市","行政區":"仁武區","地址":"烏林段1386-2地號土地","地號":"高雄市仁武區烏林段1386-2地號土地","場址名稱":"高雄市仁武區烏林段1386-2地號土地","Lon":120.382091,"Lat":22.692289,"廢棄物種類":"混合","最後更新日":"2022/6/13","土水列管場":"否","現場狀態":"1.本局109年3月31日函請行為人及產源限期清理，行為人及產源委託清理廢塑膠及營建混合物，清理輛分別為339.42、37.91公噸(共計377.33公噸) 2.現場仍有堆置廢棄物，後續將持續請產源及行為人提送清理計畫"},"geometry":{"x":13400873.070771737,"y":2594848.3707367829}},{"attributes":{"OBJECTID":216,"案件編號":916,"縣市":"高雄市","行政區":"旗山區","地址":"東平段0069-0000地號土地","地號":"高雄市旗山區東平段0069-0000地號土地","場址名稱":"高雄市旗山區東平段0069-0000地號土地","Lon":120.494351,"Lat":22.886769,"廢棄物種類":"一般","最後更新日":"2022/5/13","土水列管場":"否","現場狀態":"本局110/11/15檢送「永益展環保科技股份有限公司」、「劉建民君」、「永旺勝環保工業有限公司及張容慈君」，「昇潔科技股份有限公司」，「庭綠企業有限公司及彭瑞蓮君」至法務部行政執行署高雄分署，強制執行清理費用(廢塑膠混合物約843公噸)"},"geometry":{"x":13413369.796752457,"y":2618330.9948890377}},{"attributes":{"OBJECTID":217,"案件編號":917,"縣市":"高雄市","行政區":"路竹區","地址":"復興街1133巷60-1號","地號":"高雄市路竹區三爺埤段(2811)60-1地號","場址名稱":"高雄市路竹區復興街1133巷60-1號","Lon":120.287456,"Lat":22.834255,"廢棄物種類":"一般","最後更新日":"2022/5/9","土水列管場":"否","現場狀態":"當日巡查時，目視無任何廢棄物堆置，無異常情事發生。"},"geometry":{"x":13390338.350693185,"y":2611986.851830021}},{"attributes":{"OBJECTID":218,"案件編號":918,"縣市":"高雄市","行政區":"阿蓮區","地址":"高雄市阿蓮區土庫段1021-1、1052、1053、1054、1067、1068、1069、1070、1071地號土地、 高雄市阿蓮區阿蓮段一小段95、96地","地號":"高雄市阿蓮區中正路216巷56之1號、 高雄市阿蓮區土庫段1021-1、1052、1053、1054、1067、1068、1069、1070、1071地號土地、 高雄市阿蓮區阿蓮段一小段95、96地","場址名稱":"綠建股份有限公司、繹群環保有限公司徐君及笠富實業有限公司 灰黑色不明粉末","Lon":120.319124,"Lat":22.842323,"廢棄物種類":"混合","最後更新日":"2022/5/18","土水列管場":"否","現場狀態":"綠建股份有限公司於109年12月11日至110年8月4日委託清理A-8401、D-2507、E-0222、R-1902~R-1908、R-1904、R-1907、R-1908、G-0201、G-1301、D-0299、R-0503，分別清理0.27、0.757、3.873、4.59、2.31、2.47、239.28、224.56公噸。(共計478.11公噸)"},"geometry":{"x":13393863.616414199,"y":2612961.3762917793}},{"attributes":{"OBJECTID":219,"案件編號":919,"縣市":"高雄市","行政區":"燕巢區","地址":"滾水路107號、觀水段638地號","地號":"高雄市燕巢區滾水路107號、高雄市燕巢區觀水段638地號","場址名稱":"高雄市燕巢區滾水路107號、觀水段638地號","Lon":120.327763,"Lat":22.77777,"廢棄物種類":"一般","最後更新日":"2022/5/20","土水列管場":"否","現場狀態":"陳孟維於110年7月10日至110年8月18日，委託清理廢鑄砂、廢木材、一般垃圾，清理量分別為20.71、3.16、4.59公噸。(共計28.46公噸)"},"geometry":{"x":13394825.305494025,"y":2605165.7100686217}},{"attributes":{"OBJECTID":220,"案件編號":920,"縣市":"高雄市","行政區":"大樹區","地址":"興田段114地號","地號":"高雄市大樹區興田段114地號","場址名稱":"高雄市大樹區興田段114地號","Lon":120.447144,"Lat":22.74428,"廢棄物種類":"一般","最後更新日":"2022/5/13","土水列管場":"否","現場狀態":"本局110年7月29日函請行為人及產源限清前陳述，逾期未陳述者，本局將依廢棄物清理法第71條第1項規定，命行為人及產源限期清理。"},"geometry":{"x":13408114.737583613,"y":2601122.7836642368}},{"attributes":{"OBJECTID":221,"案件編號":921,"縣市":"高雄市","行政區":"田寮區","地址":"田寮段29等地號","地號":"高雄市田寮區田寮段29等地號","場址名稱":"高雄市田寮區田寮段29等地號","Lon":120.412632,"Lat":22.825067,"廢棄物種類":"一般","最後更新日":"2022/5/3","土水列管場":"否","現場狀態":"久美特企業有限公司本洲廠於110年7月13日向本局提報，旨案廢棄物清運完工流向資料(D-1199、D-0902、R-1301、R-0503)分別清理50.77、175.56、2.02、1.87公噸。(共計230.22公噸)"},"geometry":{"x":13404272.879347518,"y":2610877.1141682127}},{"attributes":{"OBJECTID":222,"案件編號":922,"縣市":"高雄市","行政區":"田寮區","地址":"南安老段1025地號","地號":"高雄市田寮區南安老段1025地號","場址名稱":"高雄市田寮區安南老段1025地號","Lon":120.386817,"Lat":22.871783,"廢棄物種類":"一般","最後更新日":"2022/5/3","土水列管場":"否","現場狀態":"台灣橋頭地方檢察署109年11月9日不起訴，旨案堆置物為營建剩餘土石方。"},"geometry":{"x":13401399.166619027,"y":2616520.3071701434}},{"attributes":{"OBJECTID":223,"案件編號":923,"縣市":"高雄市","行政區":"小港區","地址":"大林段1180、1181地號","地號":"高雄市小港區大林段1180、1181地號","場址名稱":"高雄市小港區大林段1180、1181地號","Lon":120.350689,"Lat":22.522366,"廢棄物種類":"一般","最後更新日":"2022/6/15","土水列管場":"否","現場狀態":"當日巡查時，目視現場已無廢棄物。"},"geometry":{"x":13397377.416099338,"y":2574358.1746401214}},{"attributes":{"OBJECTID":224,"案件編號":924,"縣市":"高雄市","行政區":"林園區","地址":"龔林段277地號土地","地號":"高雄市林園區龔林段277地號土地","場址名稱":"高雄市林園區龔林段277地號土地","Lon":120.369182,"Lat":22.515517,"廢棄物種類":"一般","最後更新日":"2022/6/22","土水列管場":"否","現場狀態":"內政部警政署保安警察第七總隊第三大隊109年1月16日移請臺灣高雄地方檢察署偵辦，本局110年4月21日函詢該署是否有證據保全之必要，該署110年5月5日函復本案尚偵查中，請暫勿解除。"},"geometry":{"x":13399436.047470614,"y":2573532.8163052807}},{"attributes":{"OBJECTID":225,"案件編號":926,"縣市":"高雄市","行政區":"旗山區","地址":"旗甲路2段504號","地號":"高雄市旗山區圓富段(3439)48地號","場址名稱":"高雄市旗山區旗甲路2段504號","Lon":120.499524,"Lat":22.925471,"廢棄物種類":"一般","最後更新日":"2022/5/13","土水列管場":"否","現場狀態":"1.高雄信統電產股份有限公司，110年3月16號，委託清理廢塑膠混合物(D-0299)重量共約0.33公噸。 2.和宜紙業有限股份有限公司，110年5月20日、110年5月28日、110年6月3日，委託清理廢塑膠混合物，廢止混合物、廢布，重量為17.9公噸。 3.騰賀事業有限公司於110年4月19日-110年7"},"geometry":{"x":13413945.652504362,"y":2623008.1006015916}},{"attributes":{"OBJECTID":226,"案件編號":927,"縣市":"高雄市","行政區":"大寮區","地址":"會昭街5號","地號":"高雄市大寮區赤崁段潮州寮小段(1719)6525地號","場址名稱":"高雄市大寮區會昭街5號","Lon":120.418675,"Lat":22.542915,"廢棄物種類":"一般","最後更新日":"2022/6/15","土水列管場":"否","現場狀態":"本局110年5月18日限期行為人於本函送達次日起90日內清理完畢，並於文到次日30日內檢具清理計畫書送局憑辦相關事宜，逾期將逕依廢棄物清理法第71條或行政執行法第29、34條規定辦理。"},"geometry":{"x":13404945.583017536,"y":2576834.7361464202}},{"attributes":{"OBJECTID":227,"案件編號":928,"縣市":"高雄市","行政區":"林園區","地址":"潭頭段2371、2372地號","地號":"高雄市林園區潭頭段2371、2372地號","場址名稱":"高雄市林園區潭頭段2371、2372地號","Lon":120.407394,"Lat":22.530274,"廢棄物種類":"一般","最後更新日":"2022/5/18","土水列管場":"否","現場狀態":"陳鄭金花、劉承祐委託清理R-0503、R-1209、D-2603、D-0399、D-0299、D-1801，清理量分別為13935.38、6051.59、68.45、4、4、37.22公噸。(共計20100.64公噸)"},"geometry":{"x":13403689.787795382,"y":2575311.2017205721}},{"attributes":{"OBJECTID":228,"案件編號":930,"縣市":"高雄市","行政區":"仁武區","地址":"觀音湖段445、480、481地號土地","地號":"高雄市仁武區觀音湖段445、480、481地號土地","場址名稱":"高雄市仁武區觀音湖段445、480、481地號土地","Lon":120.386296,"Lat":22.722259,"廢棄物種類":"一般","最後更新日":"2022/6/6","土水列管場":"否","現場狀態":"文筆於110年6月7日向本局提報，旨案廢棄物清運完工流向資料(R-0503)清理35.81公噸。"},"geometry":{"x":13401341.16919278,"y":2598464.93944083}},{"attributes":{"OBJECTID":229,"案件編號":932,"縣市":"高雄市","行政區":"大社區","地址":"鹽埕段546地號","地號":"高雄市大社區鹽埕段546地號","場址名稱":"高雄市大社區鹽埕段546地號","Lon":120.366523,"Lat":22.714771,"廢棄物種類":"一般","最後更新日":"2022/6/8","土水列管場":"否","現場狀態":"證據保全中，110年3月函詢是否可解除證據保全，臺灣橋頭地方法院函復仍需調查。"},"geometry":{"x":13399140.048909795,"y":2597561.266096619}},{"attributes":{"OBJECTID":230,"案件編號":933,"縣市":"高雄市","行政區":"仁武區","地址":"烏林段855地號","地號":"高雄市仁武區烏林段855地號","場址名稱":"高雄市仁武區烏林段855地號","Lon":120.378087,"Lat":22.697703,"廢棄物種類":"一般","最後更新日":"2022/6/13","土水列管場":"否","現場狀態":"行為人林清池於110年6月8日向本局申請變更旨案清理計劃書，本局110年6月22日同意變更清理期程至110年12月31日，預計清理廢塑膠混合物(D-0299)，清理量約40公噸。"},"geometry":{"x":13400427.347498937,"y":2595501.6355472179}},{"attributes":{"OBJECTID":290,"案件編號":1134,"縣市":"高雄市","行政區":"大樹區","地址":"新水安段285-000、286-000、287-000地號","地號":"高雄市大樹區新水安段285-000、286-000、287-000地號","場址名稱":"高雄市大樹區新水安段285-000、286-000、287-000地號","Lon":120.402301,"Lat":22.653274,"廢棄物種類":"一般","最後更新日":"2022/6/21","土水列管場":"否","現場狀態":"行為人陳添福110年10月5日提報清理資料，委託再利用營建混合物(R-0503)，數量為45.59公噸。"},"geometry":{"x":13403122.837612979,"y":2590141.4998157122}},{"attributes":{"OBJECTID":291,"案件編號":1135,"縣市":"高雄市","行政區":"岡山區","地址":"大遼路1之2號","地號":"高雄市岡山區友情段1079-4地號","場址名稱":"高雄市岡山區大遼路1之2號","Lon":120.312511,"Lat":22.778176,"廢棄物種類":"一般","最後更新日":"2022/5/9","土水列管場":"否","現場狀態":"旨案非屬非法棄置，臺灣橋頭地方檢察署不起訴洪小雯、李信樺，臺灣臺南地方檢察署申請蘇育豪簡易判決。"},"geometry":{"x":13393127.460611571,"y":2605214.7287280583}},{"attributes":{"OBJECTID":292,"案件編號":1136,"縣市":"高雄市","行政區":"鳥松區","地址":"神農路780之2號","地號":"高雄市鳥松區美德段0583-0000等地號土地","場址名稱":"高雄市鳥松區神農路780之2號（高雄市鳥松區美德段0583-0000等地號土地）","Lon":120.394608,"Lat":22.647944,"廢棄物種類":"一般","最後更新日":"2022/6/13","土水列管場":"否","現場狀態":"1.本局函請行為人及產源限期清理，行為人及產源委託清理廢木材混合物，清理量共計378.33公噸。 2.現場仍有堆置廢棄物，後續將持續請產源及行為人提送清理計畫。"},"geometry":{"x":13402266.456822367,"y":2589498.5787621411}},{"attributes":{"OBJECTID":293,"案件編號":1137,"縣市":"高雄市","行政區":"大社區","地址":"食坑段670地號","地號":"高雄市大社區食坑段670地號","場址名稱":"高雄市大社區食坑段670地號","Lon":120.391012,"Lat":22.749979,"廢棄物種類":"一般","最後更新日":"2022/6/8","土水列管場":"否","現場狀態":"行為人楚素貞110年6月1日提報清理資料，委託清理廢塑膠混合物，清理量約為2.47公噸"},"geometry":{"x":13401866.151893951,"y":2601810.6993075311}},{"attributes":{"OBJECTID":294,"案件編號":1138,"縣市":"高雄市","行政區":"鳥松區","地址":"神農路780之2號","地號":"（高雄市鳥松區美德段0583-0000等地號土地）","場址名稱":"高雄市鳥松區神農路780之2號","Lon":120.39458,"Lat":22.648063,"廢棄物種類":"一般","最後更新日":"2022/6/13","土水列管場":"否","現場狀態":"1.本局函請行為人及產源限期清理，行為人及產源委託清理廢木材混合物，清理量共計378.33公噸。 2.現場仍有堆置廢棄物，後續將持續請產源及行為人提送清理計畫。"},"geometry":{"x":13402263.339832997,"y":2589512.9326498546}},{"attributes":{"OBJECTID":295,"案件編號":1139,"縣市":"高雄市","行政區":"大社區","地址":"鹽埕段203地號土地","地號":"高雄市大社區鹽埕段203地號土地","場址名稱":"高雄市大社區鹽埕段203地號土地","Lon":120.363868,"Lat":22.722714,"廢棄物種類":"一般","最後更新日":"2022/6/8","土水列管場":"否","現場狀態":"案實際棄置地點為高雄市小港區坪北段527地號，行為人及產源於110年8月18日委託清理廢電電纜及廢光纖電纜，分別清理8.47、8.06公噸(共16.53公噸)，當日巡查，現場大門深鎖，無異常之情事。"},"geometry":{"x":13398844.495647475,"y":2598519.8517774148}},{"attributes":{"OBJECTID":296,"案件編號":1140,"縣市":"高雄市","行政區":"旗山區","地址":"十八份段第257.258地號土地","地號":"高雄市旗山區十八份段第257.258地號土地","場址名稱":"高雄市旗山區十八份段第257.258地號土地","Lon":120.485827,"Lat":22.853875,"廢棄物種類":"一般","最後更新日":"2022/5/13","土水列管場":"否","現場狀態":"台灣橋頭地方法院函請本局，查明廢棄物是否已清理完畢，本局110年8月25日回復，原堆置之廢木屑上仍於現場堆置。"},"geometry":{"x":13412420.909403749,"y":2614356.8298448953}},{"attributes":{"OBJECTID":297,"案件編號":1141,"縣市":"高雄市","行政區":"旗山區","地址":"北溪洲段第56.57.59等地號土地","地號":"高雄市旗山區北溪洲段第56.57.59等地號土地","場址名稱":"高雄市旗山區北溪洲段第56.57.59等地號土地","Lon":120.471073,"Lat":22.860028,"廢棄物種類":"一般","最後更新日":"2022/6/21","土水列管場":"否","現場狀態":"台灣橋頭地方法院函請本局，查明廢棄物是否已清理完畢，本局110年8月25日回復，原堆置之廢木屑上仍於現場堆置，後續俟解除證據保全後，依法命清理義務人限期清理。"},"geometry":{"x":13410778.501681408,"y":2615100.1456303}},{"attributes":{"OBJECTID":298,"案件編號":1142,"縣市":"高雄市","行政區":"小港區","地址":"坪南段0017、0025地號","地號":"高雄市小港區坪南段0017、0025地號","場址名稱":"高雄市小港區坪南段0017、0025地號","Lon":120.382006,"Lat":22.566595,"廢棄物種類":"一般","最後更新日":"2022/5/17","土水列管場":"否","現場狀態":"行為人張耀仁於110年12月2日至110年12月3日，委託再利用營建混合物(R-0503)，數量為39.45公噸"},"geometry":{"x":13400863.608579116,"y":2579689.1025266084}},{"attributes":{"OBJECTID":299,"案件編號":1143,"縣市":"高雄市","行政區":"永安區","地址":"維新路35之8號","地號":"高雄市永安區文興段613地號","場址名稱":"高雄市永安區維新路35之8號","Lon":120.252627,"Lat":22.807758,"廢棄物種類":"一般","最後更新日":"2022/5/18","土水列管場":"否","現場狀態":"本局於110年7月6日函詢內政部保安警察第七總隊第三大隊是否有證據保全之需要，該大隊110年10月12日移請台灣橋頭地方檢察署偵辦，後續俟解除證據保全後完成清理事宜"},"geometry":{"x":13386461.204152983,"y":2608786.7158781332}},{"attributes":{"OBJECTID":300,"案件編號":1144,"縣市":"高雄市","行政區":"仁武區","地址":"竹圍段1135-0004地號","地號":"高雄市仁武區竹圍段1135-0004地號","場址名稱":"高雄市仁武區竹圍段1135-0004地號","Lon":120.339726,"Lat":22.695653,"廢棄物種類":"一般","最後更新日":"2022/6/8","土水列管場":"否","現場狀態":"臺灣橋頭地方法院刑事判決書提及被告已於查獲後清理完畢(本局110年3月5日高市環局稽字第11032051100號函參照)。"},"geometry":{"x":13396157.020505933,"y":2595254.2751005762}},{"attributes":{"OBJECTID":301,"案件編號":1145,"縣市":"高雄市","行政區":"大寮區","地址":"潮寮路18巷39F棟、朝德路36號","地號":"高雄市大寮區潮寮北段868地號","場址名稱":"高雄市大寮區潮寮路18巷39F棟、朝德路36號","Lon":120.418947,"Lat":22.566286,"廢棄物種類":"一般","最後更新日":"2022/5/24","土水列管場":"否","現場狀態":"行為人宋建泓110年1月7日提報清理資料，委託清理廢電子零組件、下腳品及不良品(E-0217)，清理量為114.15公噸。"},"geometry":{"x":13404975.861913776,"y":2579651.8527997267}},{"attributes":{"OBJECTID":302,"案件編號":1146,"縣市":"高雄市","行政區":"鳥松區","地址":"大丘園段450及49地號。","地號":"高雄市鳥松區大丘園段450及49地號。","場址名稱":"高雄市鳥松區大丘園段450及49地號。","Lon":120.39523,"Lat":22.667356,"廢棄物種類":"一般","最後更新日":"2022/6/13","土水列管場":"否","現場狀態":"台灣橋頭地方檢察署110年1月29日緩起訴阮昭暵、王美惠，後續俟解除證據保全後，依法命清理義務人限期清理。"},"geometry":{"x":13402335.697535114,"y":2591840.2344483375}},{"attributes":{"OBJECTID":303,"案件編號":1147,"縣市":"高雄市","行政區":"仁武區","地址":"公錧二巷10至10之8號前","地號":"高雄市仁武區觀音湖段406地號","場址名稱":"高雄市仁武區公錧二巷10至10之8號前","Lon":120.38051,"Lat":22.712742,"廢棄物種類":"一般","最後更新日":"2022/6/13","土水列管場":"否","現場狀態":"內政部保安警察第七總隊第三大隊109年10月7日移請臺灣橋頭地方檢察署偵辦，後續俟解除證據保全後，依法命清理義務人限期清理。"},"geometry":{"x":13400697.074649774,"y":2597316.4090578477}},{"attributes":{"OBJECTID":304,"案件編號":1148,"縣市":"高雄市","行政區":"大樹區","地址":"和山段831-000地號","地號":"高雄市大樹區和山段831-000地號","場址名稱":"高雄市大樹區和山段831-000地號","Lon":120.40857,"Lat":22.697529,"廢棄物種類":"一般","最後更新日":"2022/6/21","土水列管場":"否","現場狀態":"內政部保安警察第七總隊第三大隊109年10月12日移請臺灣橋頭地方檢察署偵辦，後續俟解除證據保全後，依法命清理義務人限期清理。"},"geometry":{"x":13403820.699546849,"y":2595480.6399409296}},{"attributes":{"OBJECTID":305,"案件編號":1149,"縣市":"高雄市","行政區":"田寮區","地址":"潮寮段445-2地號","地號":"高雄市田寮區潮寮段445-2地號","場址名稱":"高雄市田寮區潮寮段445-2地號","Lon":120.431372,"Lat":22.564333,"廢棄物種類":"一般","最後更新日":"2022/6/14","土水列管場":"否","現場狀態":"旨案實際棄置地號為田寮區牛稠埔段445-2、449-7地號，行為人柯育添提送清理計畫書，本局110年8月12日同意備查，核准清理營建混合物、廢木材分別約為1萬5、5千公噸(以實際清運量磅單重量為主)，並限期2年內清理完成。"},"geometry":{"x":13406359.006599542,"y":2579416.4218690391}},{"attributes":{"OBJECTID":306,"案件編號":1150,"縣市":"高雄市","行政區":"大樹區","地址":" ","地號":"高雄市大樹區小坪段182地號","場址名稱":"高雄市大樹區關帝廟停車場、大坑路州子橋、大坑溝橋等3處所","Lon":120.39296,"Lat":22.693458,"廢棄物種類":"一般","最後更新日":"2022/6/27","土水列管場":"否","現場狀態":"110年8月2日緩起訴處分，後續俟解除證據保全後，依法命清理義務人限期清理。"},"geometry":{"x":13402083.002250914,"y":2594989.4225927521}},{"attributes":{"OBJECTID":307,"案件編號":1151,"縣市":"高雄市","行政區":"旗山區","地址":"大林段1147及1148地號土地","地號":"高雄市旗山區大林段1147及1148地號土地","場址名稱":"高雄市旗山區大林段1147及1148地號土地","Lon":120.514253,"Lat":22.94474,"廢棄物種類":"一般","最後更新日":"2022/6/21","土水列管場":"否","現場狀態":"當日巡查時大門深鎖，現場目視無廢棄物堆置之情形。"},"geometry":{"x":13415585.277311327,"y":2625337.2419338315}},{"attributes":{"OBJECTID":308,"案件編號":1152,"縣市":"高雄市","行政區":"阿蓮區","地址":"中路段2796、2798地號土地","地號":"高雄市阿蓮區中路段2796、2798地號土地","場址名稱":"高雄市阿蓮區中路段2796、2798地號土地","Lon":120.288989,"Lat":22.891109,"廢棄物種類":"一般","最後更新日":"2022/5/18","土水列管場":"否","現場狀態":"內政部保安警察第七總隊第三大隊110年1月12日移請臺灣橋頭地方檢察署偵辦，後續俟解除證據保全後，依法命清理義務人限期清理。"},"geometry":{"x":13390509.003533533,"y":2618855.4140300252}},{"attributes":{"OBJECTID":309,"案件編號":1153,"縣市":"高雄市","行政區":"大樹區","地址":"姑山段521地號土地","地號":"高雄市大樹區姑山段521地號土地","場址名稱":"高雄市大樹區姑山段521地號土地","Lon":120.436466,"Lat":22.710778,"廢棄物種類":"一般","最後更新日":"2022/6/21","土水列管場":"否","現場狀態":"內政部保安警察第七總隊第三大隊109年11月6日移請臺灣橋頭地方檢察署偵辦，後續俟解除證據保全後，依法命清理義務人限期清理。"},"geometry":{"x":13406926.068106562,"y":2597079.3996260609}},{"attributes":{"OBJECTID":310,"案件編號":1154,"縣市":"高雄市","行政區":"大寮區","地址":" ","地號":"高雄市大寮區翁公園段3020-1地號","場址名稱":"高雄市大寮區光明路三段(松寮路橋下)","Lon":120.401753,"Lat":22.710542,"廢棄物種類":"一般","最後更新日":"2022/5/24","土水列管場":"否","現場狀態":"旨案屬露天燃燒，未涉非法棄置，臺灣高等法院高雄分院已判決，上訴至最高法院。"},"geometry":{"x":13403061.834622107,"y":2597050.9200916779}},{"attributes":{"OBJECTID":311,"案件編號":1155,"縣市":"高雄市","行政區":"大寮區","地址":"寮溪路10之37號","地號":"高雄市大寮區翁公園段二小段4902地號","場址名稱":"高雄市大寮區溪寮路10之37號","Lon":120.418643,"Lat":22.622356,"廢棄物種類":"一般","最後更新日":"2022/5/4","土水列管場":"否","現場狀態":"案場址係為轉運站，實際棄置地點為高雄市小港區水庫段303-6地號等，內政部保安警察第七總隊第三大隊109年12月2日移請臺灣高雄地方檢察署偵辦，後續俟解除證據保全後，依法命清理義務人限期清理"},"geometry":{"x":13404942.020729663,"y":2586412.4221711545}},{"attributes":{"OBJECTID":312,"案件編號":1156,"縣市":"高雄市","行政區":"大寮區","地址":"利民街37號","地號":"高雄市大寮區赤崁段潮州寮三小段6568-44地號","場址名稱":"高雄市大寮區利民街37號","Lon":120.434046,"Lat":22.58992,"廢棄物種類":"一般","最後更新日":"2022/5/24","土水列管場":"否","現場狀態":"違規行為係為未依規定再利用廢液，未涉非法棄置，內政部保安警察第七總隊第三大隊第三中隊109年12月8日移請臺灣高雄地方檢察署偵辦。"},"geometry":{"x":13406656.674929611,"y":2582501.1568176611}},{"attributes":{"OBJECTID":313,"案件編號":1157,"縣市":"高雄市","行政區":"田寮區","地址":"田寮段第699-12地號土地","地號":"高雄市田寮區田寮段第699-12地號土地","場址名稱":"高雄市田寮區田寮段第699-12地號土地","Lon":120.366473,"Lat":22.85058,"廢棄物種類":"一般","最後更新日":"2022/6/21","土水列管場":"否","現場狀態":"內政部保安警察第七總隊第三大隊110年1月7日移請臺灣橋頭地方檢察署偵辦，，後續俟解除證據保全後，依法命清理義務人限期清理。"},"geometry":{"x":13399134.482978903,"y":2613958.7897752835}},{"attributes":{"OBJECTID":314,"案件編號":1158,"縣市":"高雄市","行政區":"茄萣區","地址":"頂茄萣段111之16號農地","地號":"高雄市茄萣區頂茄萣段二小段111之16地號旁農地","場址名稱":"高雄市茄萣區頂茄萣段二小段111之16地號旁農地","Lon":120.198398,"Lat":22.891826,"廢棄物種類":"一般","最後更新日":"2022/6/13","土水列管場":"否","現場狀態":"內政部保安警察第七總隊第三大隊110年1月12日移請臺灣橋頭地方檢察署偵辦，後續俟解除證據保全後，依法命清理義務人限期清理。"},"geometry":{"x":13380424.459512526,"y":2618942.053517872}},{"attributes":{"OBJECTID":315,"案件編號":1159,"縣市":"高雄市","行政區":"大寮區","地址":"潭鳳段391、392、893、894、895、896、899、900地號土地","地號":"高雄市大寮區潭鳳段391、392、893、894、895、896、899、900地號土地","場址名稱":"高雄市大寮區潭鳳段391、392、893、894、895、896、899、900地號土地","Lon":120.36877,"Lat":22.592573,"廢棄物種類":"一般","最後更新日":"2022/5/24","土水列管場":"否","現場狀態":"內政部保安警察第七總隊第三大隊110年1月25日移請臺灣高雄地方檢察署偵辦，後續俟解除證據保全後，依法命清理義務人限期清理。"},"geometry":{"x":13399390.183827743,"y":2582821.0317829717}},{"attributes":{"OBJECTID":316,"案件編號":1160,"縣市":"高雄市","行政區":"路竹區","地址":"常興路80巷30號","地號":"高雄市路竹區下甲段60地號","場址名稱":"高雄市路竹區長興路80巷30號","Lon":120.239248,"Lat":22.849657,"廢棄物種類":"一般","最後更新日":"2022/6/14","土水列管場":"否","現場狀態":"內政部警政署保安警察第七總隊第三大隊110年2月1日移送台灣橋頭地方檢查署偵辦，本局110年3月4日函詢證據保全，後續俟解除證據保全後，依法命清理義務人限期清理。"},"geometry":{"x":13384971.860681118,"y":2613847.2919278685}},{"attributes":{"OBJECTID":317,"案件編號":1161,"縣市":"高雄市","行政區":"大寮區","地址":"赤崁段2287地號","地號":"高雄市大寮區赤崁段2287地號","場址名稱":"高雄市大寮區赤崁段2287地號","Lon":120.406129,"Lat":22.537258,"廢棄物種類":"有害","最後更新日":"2022/5/11","土水列管場":"否","現場狀態":"內政部警政署保安警察第七總隊第三大隊110年2月2日移送台灣高雄地方檢查署偵辦，本局110年7月19日函詢證據保全，後續俟解除證據保全後，依法命清理義務人限期清理。"},"geometry":{"x":13403548.968652906,"y":2576152.9188204948}},{"attributes":{"OBJECTID":318,"案件編號":1162,"縣市":"高雄市","行政區":"林園區","地址":"中芸段1015-0000地號","地號":"高雄市林園區中芸段1015-0000地號","場址名稱":"高雄市林園區中芸段1015-0000地號","Lon":120.399621,"Lat":22.495866,"廢棄物種類":"一般","最後更新日":"2022/5/22","土水列管場":"否","現場狀態":"內政部保安警察第七總隊第三大隊110年2月24日移請臺灣高雄地方檢察署偵辦，後續俟解除證據保全後，依法命清理義務人限期清理"},"geometry":{"x":13402824.50143528,"y":2571164.9433953683}},{"attributes":{"OBJECTID":319,"案件編號":1163,"縣市":"高雄市","行政區":"路竹區","地址":"大仁段0905地號","地號":"高雄市路竹區大仁段0905地號","場址名稱":"高雄市路竹區大仁段0905地號","Lon":120.259096,"Lat":22.869415,"廢棄物種類":"一般","最後更新日":"2022/6/14","土水列管場":"否","現場狀態":"本局110年11月24日函請國峰生物科技股份有限公司，限期於本函送達次日起90日內清理完畢，並於文到次日30日內檢具清理計畫書送局憑辦相關事宜，逾期將逕依廢棄物清理法第71條或行政執行法第29、34條規定辦理。"},"geometry":{"x":13387181.330010599,"y":2616234.2111212467}},{"attributes":{"OBJECTID":320,"案件編號":1168,"縣市":"高雄市","行政區":"仁武區","地址":"竹後里竹東路88號","地號":"高雄市仁武區竹後段49地號","場址名稱":"高雄市仁武區竹後里竹東路88號","Lon":120.292986,"Lat":22.710396,"廢棄物種類":"一般","最後更新日":"2022/6/8","土水列管場":"否","現場狀態":"當日巡查時，現場有人為活動但無異常情事。"},"geometry":{"x":13390953.947533945,"y":2597033.3013752736}},{"attributes":{"OBJECTID":340,"案件編號":1259,"縣市":"高雄市","行政區":"大樹區","地址":"統嶺段603地號","地號":"高雄市大樹區統嶺段603地號","場址名稱":"高雄市大樹區統嶺段603地號","Lon":120.435298,"Lat":22.769974,"廢棄物種類":"一般","最後更新日":"2022/6/27","土水列管場":"否","現場狀態":"當日巡查，大門深鎖，該場址目前偵辦中。"},"geometry":{"x":13406796.046851978,"y":2604224.4852374634}},{"attributes":{"OBJECTID":341,"案件編號":1260,"縣市":"高雄市","行政區":"鳥松區","地址":"美德段162、163地號","地號":"燕巢區興龍段737-6地號、鳳雄段386、386-1、386-2、486地號","場址名稱":"高雄市鳥松區美德段162、163地號","Lon":120.39916,"Lat":22.647457,"廢棄物種類":"一般","最後更新日":"2022/6/13","土水列管場":"否","現場狀態":"當日巡查鳥松區美德段162、163地號，該場址大門深鎖，無人為活動及異常情事發生。"},"geometry":{"x":13402773.18318616,"y":2589439.8365592575}},{"attributes":{"OBJECTID":342,"案件編號":1261,"縣市":"高雄市","行政區":"小港區","地址":"孔宅段317地號","地號":"高雄市燕巢區瓊安段191地號","場址名稱":"高雄市小港區孔宅段317地號","Lon":120.40611,"Lat":22.537054,"廢棄物種類":"一般","最後更新日":"2022/6/15","土水列管場":"否","現場狀態":"當日巡查時，該場址大門深鎖，無人為活動及異常之情事。"},"geometry":{"x":13403546.853585156,"y":2576128.3320342745}},{"attributes":{"OBJECTID":343,"案件編號":1262,"縣市":"高雄市","行政區":"湖內區","地址":"正義段0116、0122、0124、0125、0126等地號","地號":"高雄市湖內區正義段116地號 高雄市湖內區正義段122地號 高雄市湖內區正義段124地號 高雄市湖內區正義段125地號 高雄市湖內區正義段126地號","場址名稱":"高雄市湖內區正義段0116、0122、0124、0125、0126等地號","Lon":120.236484,"Lat":22.876077,"廢棄物種類":"一般","最後更新日":"2022/5/10","土水列管場":"否","現場狀態":"當日巡查，該場址目前為一大片空地，目視現場無廢棄物堆置之情形。"},"geometry":{"x":13384664.173635414,"y":2617039.1104452158}},{"attributes":{"OBJECTID":344,"案件編號":1263,"縣市":"高雄市","行政區":"岡山區","地址":"嘉新段1102地號","地號":"高雄市岡山區嘉興段1102地號","場址名稱":"高雄市岡山區嘉新段1102地號","Lon":120.306879,"Lat":22.805624,"廢棄物種類":"一般","最後更新日":"2022/6/14","土水列管場":"否","現場狀態":"該場址四周設置圍籬，目視現場仍有廢棄物堆置之情形。"},"geometry":{"x":13392500.509159695,"y":2608529.0122271688}},{"attributes":{"OBJECTID":345,"案件編號":1264,"縣市":"高雄市","行政區":"燕巢區","地址":"安招路254號空地","地號":"高雄市燕巢區瓊安段191地號","場址名稱":"高雄市燕巢區安招路254號空地","Lon":120.335812,"Lat":22.790268,"廢棄物種類":"一般","最後更新日":"2022/6/27","土水列管場":"否","現場狀態":"當日巡查，現場有數個大型鐵桶及貝克桶，無人為活動及車輛進出之情事。"},"geometry":{"x":13395721.316048874,"y":2606674.72801162}},{"attributes":{"OBJECTID":346,"案件編號":1265,"縣市":"高雄市","行政區":"燕巢區","地址":"大腳腿段1737地號","地號":"大樹區龍目段0121地號","場址名稱":"高雄市鳥松區大腳腿段1737地號","Lon":120.386995,"Lat":22.643531,"廢棄物種類":"一般","最後更新日":"2022/6/13","土水列管場":"否","現場狀態":"鳥松區大腳腿段1737地號，該場址從事五金回收清除處理，目前現場已清除完畢。"},"geometry":{"x":13401418.981501145,"y":2588966.2878699582}},{"attributes":{"OBJECTID":382,"案件編號":1319,"縣市":"高雄市","行政區":"茄萣區","地址":"崎漏段一小段14-30及14-31地號","地號":"高雄市茄萣區崎漏段一小段14-30及14-31地號","場址名稱":"高雄市茄萣區崎漏段一小段14-30及14-31地號。","Lon":120.215531,"Lat":22.88112,"廢棄物種類":"一般","最後更新日":"2022/6/13","土水列管場":"否","現場狀態":"當日巡查時現場無人為活動，無異常情形"},"geometry":{"x":13382331.696402561,"y":2617648.4293989697}},{"attributes":{"OBJECTID":383,"案件編號":1320,"縣市":"高雄市","行政區":"田寮區","地址":"田寮段0044-0007地號","地號":"高雄市田寮區田寮段0044-0007地號","場址名稱":"高雄市田寮區田寮段0044-0007地號","Lon":120.412081,"Lat":22.825619,"廢棄物種類":"一般","最後更新日":"2022/6/21","土水列管場":"否","現場狀態":"當日巡查時，道路坍方無法通行。"},"geometry":{"x":13404211.542282658,"y":2610943.7833076064}},{"attributes":{"OBJECTID":384,"案件編號":1321,"縣市":"高雄市","行政區":"杉林區","地址":"杉林段0005-0001地號及0034-00001地號土地","地號":"高雄市杉林區杉林段0005-0001地號及0034-00001地號土地","場址名稱":"高雄市杉林區杉林段0005-0001地號及0034-00001地號土地","Lon":120.568503,"Lat":23.011548,"廢棄物種類":"一般","最後更新日":"2022/6/29","土水列管場":"否","現場狀態":"當日巡查時無異常情形"},"geometry":{"x":13421624.35966878,"y":2633415.2326096259}},{"attributes":{"OBJECTID":385,"案件編號":1322,"縣市":"高雄市","行政區":"湖內區","地址":"寧靖段662地號","地號":"高雄市湖內區寧靖段662地號","場址名稱":"高雄市湖內區寧靖段662地號","Lon":120.234998,"Lat":22.882721,"廢棄物種類":"一般","最後更新日":"2022/6/13","土水列管場":"否","現場狀態":"當日巡查時，現場雜草叢生，無異常情形"},"geometry":{"x":13384498.7528522,"y":2617841.8744640346}},{"attributes":{"OBJECTID":386,"案件編號":1323,"縣市":"高雄市","行政區":"大社區","地址":"食坑段0938-0000及0939-0000地號(國有土地)","地號":"高雄市大社區食坑段938地號 高雄市大社區食坑段939地號","場址名稱":"高雄市大社區食坑段0938-0000及0939-0000地號(國有土地)","Lon":120.382045,"Lat":22.743052,"廢棄物種類":"一般","最後更新日":"2022/6/8","土水列管場":"否","現場狀態":"當日巡查時，現場有堆置太空包，無人為活動及異常之情事"},"geometry":{"x":13400867.950039245,"y":2600974.5578437308}},{"attributes":{"OBJECTID":387,"案件編號":1324,"縣市":"高雄市","行政區":"大寮區","地址":"會結二路326巷25號","地號":"高雄市大寮區赤崁段潮州寮小段5937地號","場址名稱":"高雄市大寮區會結二路326巷25號","Lon":120.444219,"Lat":22.704615,"廢棄物種類":"一般","最後更新日":"2022/6/8","土水列管場":"否","現場狀態":"當日巡查時，無人為活動及異常之情事"},"geometry":{"x":13407789.128074294,"y":2596335.6898632748}},{"attributes":{"OBJECTID":388,"案件編號":1325,"縣市":"高雄市","行政區":"鳥松區","地址":"松埔段231地號","地號":"高雄市鳥松區松埔段231地號","場址名稱":"高雄市鳥松區松埔段231地號","Lon":120.371292,"Lat":22.670287,"廢棄物種類":"一般","最後更新日":"2022/6/13","土水列管場":"否","現場狀態":"當日巡查時，無人為活動及異常之情事"},"geometry":{"x":13399670.931615818,"y":2592193.8277096166}},{"attributes":{"OBJECTID":389,"案件編號":1326,"縣市":"高雄市","行政區":"岡山區","地址":"五甲尾段1029地號","地號":"高雄市岡山區五甲尾段1029地號","場址名稱":"高雄市岡山區五甲尾段1029地號","Lon":120.309763,"Lat":22.797711,"廢棄物種類":"一般","最後更新日":"2022/6/14","土水列管場":"否","現場狀態":"當日巡查時，無車輛進出及人為活動，無異常之情事。"},"geometry":{"x":13392821.554659756,"y":2607573.4670541417}},{"attributes":{"OBJECTID":390,"案件編號":1327,"縣市":"高雄市","行政區":"旗山區","地址":"尚和段0899-0000、0817-0000地號","地號":"高雄市旗山區尚和段899地號 高雄市旗山區尚和段817地號","場址名稱":"高雄市旗山區尚和段0899-0000、0817-0000地號","Lon":120.461736,"Lat":22.821341,"廢棄物種類":"一般","最後更新日":"2022/6/29","土水列管場":"否","現場狀態":"當日巡查時無人為活動及異常之情事"},"geometry":{"x":13409739.111617832,"y":2610427.1047649886}},{"attributes":{"OBJECTID":395,"案件編號":1337,"縣市":"高雄市","行政區":"旗山區","地址":"北?段814、815及819地號","地號":"高雄市旗山區北勢段814地號 高雄市旗山區北勢段815地號 高雄市旗山區北勢段819地號","場址名稱":"高雄市旗山區北?段814、815及819地號","Lon":120.459033,"Lat":22.872596,"廢棄物種類":"有害","最後更新日":"2022/7/4","土水列管場":"否","現場狀態":"當日巡查時，無人為活動及異常之情事"},"geometry":{"x":13409438.214973763,"y":2616618.532969851}},{"attributes":{"OBJECTID":396,"案件編號":1338,"縣市":"高雄市","行政區":"六龜區","地址":"老濃段654之3、654之4及654等3地號","地號":"高雄市六龜區荖濃段654-3地號 高雄市六龜區荖濃段654-4地號 高雄市六龜區荖濃段654地號","場址名稱":"高雄市六龜區老濃段654之3、654之4及654等3地號","Lon":120.660273,"Lat":23.027328,"廢棄物種類":"一般","最後更新日":"2022/7/4","土水列管場":"否","現場狀態":"當日巡查時，無人為活動及異常之情事"},"geometry":{"x":13431840.149315024,"y":2635323.8316613347}},{"attributes":{"OBJECTID":426,"案件編號":1384,"縣市":"高雄市","行政區":"旗山區","地址":"南溪洲段439地號","地號":" ","場址名稱":"旗山區南溪洲段439地號遭非法棄置廢棄物案","Lon":120.476503,"Lat":22.840222,"廢棄物種類":"一般","最後更新日":"2022/5/30","土水列管場":"否","現場狀態":" "},"geometry":{"x":13411382.966560297,"y":2612707.5933678052}},{"attributes":{"OBJECTID":427,"案件編號":1385,"縣市":"高雄市","行政區":"鳥松區","地址":"仁德路145之1號(鳥松區美德段585地號)","地號":" ","場址名稱":"高雄市鳥松區仁德路145之1號(鳥松區美德段585地號)","Lon":120.39585,"Lat":22.647058,"廢棄物種類":"一般","最後更新日":"2022/5/30","土水列管場":"否","現場狀態":" "},"geometry":{"x":13402404.715598604,"y":2589391.7090667882}},{"attributes":{"OBJECTID":428,"案件編號":1386,"縣市":"高雄市","行政區":"美濃區","地址":"東合段417地號","地號":" ","場址名稱":"高雄市美濃區東合段417地號","Lon":120.5639,"Lat":22.895671,"廢棄物種類":"一般","最後更新日":"2022/5/30","土水列管場":"否","現場狀態":" "},"geometry":{"x":13421111.956049496,"y":2619406.6763093225}},{"attributes":{"OBJECTID":429,"案件編號":1387,"縣市":"高雄市","行政區":"大寮區","地址":"義堂段637地號土地","地號":" ","場址名稱":"高雄市大寮區義堂段637地號土地","Lon":120.419203,"Lat":22.644402,"廢棄物種類":"一般","最後更新日":"2022/5/30","土水列管場":"否","現場狀態":" "},"geometry":{"x":13405004.359716143,"y":2589071.3454724806}},{"attributes":{"OBJECTID":430,"案件編號":1388,"縣市":"高雄市","行政區":"仁武區","地址":"仁新段1691、1691-8地號土地","地號":" ","場址名稱":"高雄市仁武區仁新段1691、1691-8地號土地","Lon":120.358575,"Lat":22.711525,"廢棄物種類":"一般","最後更新日":"2022/5/31","土水列管場":"否","現場狀態":" "},"geometry":{"x":13398255.281641433,"y":2597169.5448062359}},{"attributes":{"OBJECTID":431,"案件編號":1389,"縣市":"高雄市","行政區":"鳥松區","地址":"崎子腳段1476地號","地號":"高雄市鳥松區崎子?段1476地號","場址名稱":"高雄市鳥松區崎子腳段1476地號","Lon":120.373817,"Lat":22.647863,"廢棄物種類":"一般","最後更新日":"2022/5/31","土水列管場":"否","現場狀態":" "},"geometry":{"x":13399952.013277652,"y":2589488.8084668228}},{"attributes":{"OBJECTID":432,"案件編號":1390,"縣市":"高雄市","行政區":"仁武區","地址":"觀音湖段1106、1106-1、1106-2地號土地","地號":" ","場址名稱":"高雄市仁武區觀音湖段1106、1106-1、1106-2地號土地","Lon":120.372736,"Lat":22.711171,"廢棄物種類":"一般","最後更新日":"2022/5/31","土水列管場":"否","現場狀態":" "},"geometry":{"x":13399831.676864924,"y":2597126.825398488}},{"attributes":{"OBJECTID":433,"案件編號":1391,"縣市":"高雄市","行政區":"林園區","地址":"中芸段1054、1055、1056地號土地(高雄市林園區中芸三路268巷8號)","地號":" ","場址名稱":"高雄市林園區中芸段1054、1055、1056地號土地(高雄市林園區中芸三路268巷8號)","Lon":120.398602,"Lat":22.49254,"廢棄物種類":"一般","最後更新日":"2022/5/31","土水列管場":"否","現場狀態":" "},"geometry":{"x":13402711.066848921,"y":2570764.2059027096}},{"attributes":{"OBJECTID":434,"案件編號":1392,"縣市":"高雄市","行政區":"鳥松區","地址":"中正路46巷28之1號","地號":" ","場址名稱":"高雄市鳥松區中正路46巷28之1號","Lon":120.367878,"Lat":22.652732,"廢棄物種類":"一般","最後更新日":"2022/5/31","土水列管場":"否","現場狀態":" "},"geometry":{"x":13399290.886868009,"y":2590076.1209775014}},{"attributes":{"OBJECTID":435,"案件編號":1393,"縣市":"高雄市","行政區":"大社區","地址":"圳觀段236地號","地號":" ","場址名稱":"高雄市大社區圳觀段236地號","Lon":120.360053,"Lat":22.738035,"廢棄物種類":"一般","最後更新日":"2022/5/31","土水列管場":"否","現場狀態":" "},"geometry":{"x":13398419.811827654,"y":2600368.99432124}},{"attributes":{"OBJECTID":436,"案件編號":1394,"縣市":"高雄市","行政區":"湖內區","地址":"劉家段0424-0000地號","地號":" ","場址名稱":"高雄市湖內區劉家段0424-0000地號","Lon":120.223114,"Lat":22.892053,"廢棄物種類":"一般","最後更新日":"2022/5/31","土水列管場":"否","現場狀態":" "},"geometry":{"x":13383175.832085168,"y":2618969.4833782273}},{"attributes":{"OBJECTID":437,"案件編號":1395,"縣市":"高雄市","行政區":"楠梓區","地址":"高楠段0002-0000地號","地號":"高雄市楠梓區高楠段2地號","場址名稱":"高雄市楠梓區高楠段0002-0000地號","Lon":120.32913,"Lat":22.711002,"廢棄物種類":"一般","最後更新日":"2022/5/31","土水列管場":"否","現場狀態":" "},"geometry":{"x":13394977.47924763,"y":2597106.4310277281}},{"attributes":{"OBJECTID":438,"案件編號":1396,"縣市":"高雄市","行政區":"田寮區","地址":"牛稠埔段448-003及田寮段266-002等14筆土地","地號":"高雄市田寮區牛稠埔段266-002地號 高雄市田寮區牛稠埔段448-003地號","場址名稱":"高雄市田寮區牛稠埔段448-003及田寮段266-002等14筆土地","Lon":120.39778,"Lat":22.842415,"廢棄物種類":"一般","最後更新日":"2022/5/31","土水列管場":"否","現場狀態":" "},"geometry":{"x":13402619.562212443,"y":2612972.4892778094}}]}